~Version Information
        VERS.      2.0                            : CWLS log ASCII Standard -VERSION 2.0
        WRAP.      NO                             : One line per depth step
~Well Information Block
#MNEM.UNIT                DATA                         DESCRIPTION
#----- -----           ----------           -----------------------
        STRT.M     6579                           : Глубина первой строки данных
        STOP.M     9298                           : Глубина последней строки данных
        STEP.M     1                              : Шаг глубины
        NULL.      -999.25                        : NULL VALUE
        COMP.                                     : Имя компании
        WELL.                                     : Название скважины
         FLD.                                     : Месторождение
         LOC.                                     : LOCATION
        PROV.                                     : PROVINCE
        SRVC.      АМК "Горизонт"                 : SERVICE COMPANY
         LIC.                                     : ERCB LICENCE NUMBER
        DATE.                                     : LOG DATE
         UWI.                                     : UNIQUE WELL ID
~Curve Information Block
#MNEM.UNIT                                    Curve Description
#---------                               ----------------------------
        DEPT.M                                    : 1   DEPTH
          GX.G                                    : Incl2_Inclin_accel_X_CLC
          GY.G                                    : Incl2_Inclin_accel_Y_CLC
          GZ.G                                    : Incl2_Inclin_accel_Z_CLC
          HX.mT                                   : Incl2_Inclin_magnit_X_CLC
          HY.mT                                   : Incl2_Inclin_magnit_Y_CLC
          HZ.mT                                   : Incl2_Inclin_magnit_Z_CLC
~Parameter Information Section
#MNEM.UNIT              Value                              Description
#---------  ----------------------------------------   -----------------------------------
~O Прочие данные
#----------------------------
~A   DEPT         AX         AY         AZ         HX         HY         HZ
# ...
       7587     136.6     126.9     985.7      68.6     -41.6    1105.1
       7588     144.9     130.0     980.0      69.2     -40.6    1104.7
       7589     144.1     132.7     975.2      68.9     -40.1    1104.6
       7590     141.6     134.2     976.4      69.5     -39.7    1104.5
       7591     143.3     132.3     979.3      69.8     -38.9    1105.1
       7592     143.8     126.9     985.7      70.1     -38.8    1104.6
       7593     147.2     139.2     978.1      70.0     -38.1    1104.8
       7594     140.5     134.7     994.3      70.0     -38.4    1105.0
       7595     142.4     134.8     981.5      70.1     -38.9    1104.8
       7596     145.4     138.2     979.9      69.9     -38.0    1104.9
       7597     141.3     134.6     979.1      69.6     -37.7    1104.7
       7598     136.7     138.3     987.1      69.7     -37.2    1105.0
       7599     141.3     136.2     981.1      69.4     -36.7    1104.7
       7600     136.5     137.5     987.7      70.3     -36.4    1105.0
       7601     138.6     135.6     974.7      70.0     -36.6    1104.3
       7602     134.8     137.9     978.2      69.9     -36.3    1105.0
       7603     142.9     133.0     965.7      70.2     -36.2    1104.6
       7604     131.7     135.5     964.8      70.1     -36.1    1104.6
       7605     136.3     140.4     962.2      70.6     -35.5    1105.1
       7606     138.9     138.9     973.9      70.5     -34.4    1104.7
       7607     142.2     133.9     977.2      70.7     -34.7    1104.6
       7608     133.3     140.1     981.0      70.6     -34.2    1104.7
       7609     136.2     142.0     975.1      70.9     -34.2    1104.5
       7610     137.6     142.2     972.9      70.6     -34.1    1104.5
       7611     133.5     141.8     980.1      70.6     -33.7    1104.8
       7612     135.6     140.8     983.5      70.9     -33.6    1104.9
       7613     134.9     142.3     976.4      71.0     -32.8    1105.2
       7614     133.7     143.8     979.6      71.3     -32.4    1104.8
       7615     132.3     145.4     978.0      71.6     -32.1    1104.6
       7616     132.3     144.1     977.8      72.0     -31.2    1104.9
       7617     131.2     146.1     968.6      71.9     -31.5    1104.6
       7618     132.9     145.9     982.7      71.7     -30.6    1105.1
       7619     135.6     146.5     979.4      72.4     -30.7    1105.2
       7620     131.5     143.4     982.3      72.2     -30.1    1104.8
       7621     131.7     145.6     976.8      72.5     -30.8    1105.2
       7622     132.7     145.9     981.7      71.7     -29.8    1104.8
       7623     129.8     147.3     968.5      72.5     -29.5    1105.0
       7624     132.6     146.3     984.5      72.4     -29.6    1105.3
       7625     132.9     145.0     979.0      72.5     -30.3    1105.5
       7626     132.4     146.2     976.4      72.5     -30.6    1105.2
       7627     132.7     144.8     972.6      72.0     -31.4    1105.7
       7628     134.5     144.1     957.3      72.2     -31.2    1105.7
       7629     134.1     143.8     965.5      71.9     -31.7    1105.4
       7630     134.0     143.6     980.0      72.2     -30.8    1105.3
       7631     134.2     143.7     980.8      72.4     -31.4    1105.3
       7632     134.9     144.8     979.9      72.2     -31.1    1105.1
       7633     134.1     144.2     980.2      72.0     -31.0    1104.1
       7634     133.6     144.2     980.5      71.8     -31.4    1105.4
       7635     134.3     144.0     979.7      72.0     -30.8    1105.3
       7636     134.3     143.8     980.6      72.5     -31.4    1105.6
       7637     134.9     144.7     980.5      72.2     -31.4    1105.5
       7638     134.2     143.7     979.7      72.2     -31.3    1104.4
       7639     134.2     143.8     980.1      72.4     -31.4    1105.6
       7640     133.8     143.7     980.1      72.0     -30.7    1104.6
       7641     134.2     143.9     979.9      72.0     -31.5    1104.4
       7642     134.0     143.3     980.3      71.9     -31.3    1104.4
       7643     133.9     144.1     980.5      72.0     -31.2    1104.6
       7644     134.0     143.9     979.2      71.8     -31.3    1104.9
       7645     134.9     144.3     979.9      71.8     -31.2    1104.6
       7646     134.4     144.2     980.3      72.2     -30.9    1104.6
       7647     133.8     143.9     980.2      72.2     -31.3    1104.7
       7648     133.9     144.0     979.7      71.9     -30.9    1104.6
       7649     133.9     143.6     980.2      72.5     -30.7    1104.3
       7650     133.8     144.0     981.0      72.2     -31.5    1105.1
       7651     134.7     144.2     979.9      72.2     -31.5    1104.4
       7652     134.5     144.0     980.1      72.1     -31.3    1104.8
       7653     134.6     143.8     980.3      72.4     -31.3    1104.7
       7654     134.2     144.0     980.5      72.2     -31.4    1104.0
       7655     134.1     143.9     980.1      72.1     -31.1    1105.3
       7656     134.2     143.8     979.9      71.8     -31.1    1104.9
       7657     134.6     144.2     980.1      72.0     -31.4    1104.7
       7658     134.4     143.7     980.1      72.4     -31.5    1104.9
       7659     134.1     143.8     980.5      72.0     -31.1    1104.8
       7660     134.4     144.4     980.7      72.0     -31.0    1105.4
       7661     134.8     144.6     980.6      72.0     -31.1    1104.6
       7662     133.9     144.0     980.2      72.6     -31.4    1104.8
       7663     134.1     144.0     980.6      72.3     -31.0    1104.9
       7664     134.5     144.2     980.5      72.2     -31.4    1104.8
       7665     134.2     143.9     980.0      72.2     -31.3    1104.8
       7666     134.7     144.3     980.1      71.9     -31.1    1105.6
       7667     134.2     143.7     980.2      72.3     -31.1    1104.8
       7668     134.3     143.9     980.1      72.0     -30.7    1104.9
       7669     134.1     143.7     979.7      72.1     -31.6    1104.8
       7670     134.0     144.0     979.9      72.3     -31.6    1105.0
       7671     134.1     144.0     980.9      72.1     -30.9    1105.3
       7672     134.0     143.9     980.3      72.3     -30.7    1104.8
       7673     133.8     144.2     980.1      71.9     -31.2    1104.8
       7674     134.3     144.1     980.7      72.1     -31.0    1104.9
       7675     133.7     143.9     980.9      72.3     -31.4    1105.3
       7676     134.1     144.5     980.2      72.0     -31.5    1104.9
       7677     133.4     143.9     979.7      72.5     -31.2    1105.0
       7678     133.8     143.9     980.3      72.1     -31.0    1105.4
       7679     134.4     143.9     980.5      72.2     -31.2    1105.2
       7680     134.2     143.8     980.0      72.4     -31.3    1105.3
       7681     134.1     144.0     980.1      72.1     -30.9    1105.6
       7682     134.0     144.0     980.1      72.0     -30.7    1105.0
       7683     134.3     143.8     980.3      72.4     -31.5    1105.1
       7684     134.2     143.5     980.7      72.0     -31.3    1105.3
       7685     134.7     144.7     979.7      72.4     -30.9    1105.1
       7686     133.4     141.0     971.4      72.3     -31.4    1105.4
       7687     135.4     143.9     972.8      72.4     -31.4    1105.2
       7688     134.4     143.8     973.7      72.5     -31.4    1105.1
       7689     134.6     143.5     985.5      72.0     -31.5    1105.0
       7690     133.7     143.0     981.3      72.1     -31.7    1105.1
       7691     135.5     143.6     985.4      72.4     -32.1    1105.6
       7692     136.2     143.3     981.1      71.9     -31.5    1105.5
       7693     133.9     142.6     971.9      72.0     -32.4    1105.9
       7694     134.7     142.8     966.9      71.5     -32.2    1105.3
       7695     134.7     143.3     980.4      71.5     -32.4    1105.7
       7696     137.5     141.9     984.3      71.8     -32.6    1105.2
       7697     135.6     141.0     980.7      71.6     -33.4    1105.4
       7698     139.2     139.9     978.1      72.0     -33.1    1104.3
