~Version Information
        VERS.      2.0                            : CWLS log ASCII Standard -VERSION 2.0
        WRAP.      NO                             : One line per depth step
~Well Information Block
#MNEM.UNIT                DATA                         DESCRIPTION
#----- -----           ----------           -----------------------
        STRT.M     6579                           : Глубина первой строки данных
        STOP.M     9298                           : Глубина последней строки данных
        STEP.M     1                              : Шаг глубины
        NULL.      -999.25                        : NULL VALUE
        COMP.                                     : Имя компании
        WELL.                                     : Название скважины
         FLD.                                     : Месторождение
         LOC.                                     : LOCATION
        PROV.                                     : PROVINCE
        SRVC.      АМК "Горизонт"                 : SERVICE COMPANY
         LIC.                                     : ERCB LICENCE NUMBER
        DATE.                                     : LOG DATE
         UWI.                                     : UNIQUE WELL ID
~Curve Information Block
#MNEM.UNIT                                    Curve Description
#---------                               ----------------------------
        DEPT.M                                    : 1   DEPTH
          GX.G                                    : Incl2_Inclin_accel_X_CLC
          GY.G                                    : Incl2_Inclin_accel_Y_CLC
          GZ.G                                    : Incl2_Inclin_accel_Z_CLC
          HX.mT                                   : Incl2_Inclin_magnit_X_CLC
          HY.mT                                   : Incl2_Inclin_magnit_Y_CLC
          HZ.mT                                   : Incl2_Inclin_magnit_Z_CLC
~Parameter Information Section
#MNEM.UNIT              Value                              Description
#---------  ----------------------------------------   -----------------------------------
~O Прочие данные
#----------------------------
~A   DEPT         AX         AY         AZ         HX         HY         HZ
# ...
       8147     157.0     265.5     939.0     173.9      92.9    1088.8
       8148     155.1     266.5     955.5     173.0      94.5    1089.4
       8149     153.3     266.6     948.4     172.9      95.5    1088.4
       8150     154.4     267.1     943.3     172.5      95.5    1088.5
       8151     154.5     268.5     955.9     172.7      95.9    1089.0
       8152     153.3     267.7     959.5     172.2      95.8    1089.0
       8153     154.2     267.6     956.9     172.4      95.8    1088.6
       8154     153.5     269.0     953.3     172.7      96.1    1088.7
       8155     154.0     267.7     951.2     172.9      95.9    1088.6
       8156     155.4     267.2     956.3     172.9      95.1    1088.7
       8157     157.0     266.6     947.4     173.1      94.7    1088.5
       8158     156.1     266.2     945.2     173.2      94.5    1088.8
       8159     157.4     266.7     963.5     173.7      93.7    1088.5
       8160     159.3     264.6     956.0     174.5      92.7    1089.0
       8161     160.1     264.3     958.9     174.1      92.9    1088.4
       8162     160.6     264.7     950.9     174.2      92.5    1089.2
       8163     161.1     264.3     950.9     174.6      91.6    1088.9
       8164     162.4     264.3     951.2     174.8      91.4    1088.8
       8165     162.0     263.8     950.3     174.8      91.8    1088.5
       8166     162.0     264.3     950.8     174.9      91.8    1089.0
       8167     162.2     263.7     950.6     175.4      91.3    1088.8
       8168     162.0     263.7     950.6     175.2      91.8    1089.0
       8169     161.9     263.9     950.1     174.3      91.6    1089.0
       8170     161.5     263.3     950.3     175.0      91.9    1088.8
       8171     161.2     263.2     950.5     174.7      91.6    1089.1
       8172     162.2     263.6     951.2     174.7      91.7    1088.8
       8173     162.4     264.3     949.9     174.9      92.1    1088.8
       8174     161.8     263.8     950.5     174.8      91.8    1088.8
       8175     162.4     264.5     950.5     174.9      91.9    1089.1
       8176     161.4     264.2     950.2     174.8      91.8    1088.8
       8177     162.2     264.2     950.9     174.9      91.9    1088.7
       8178     162.3     263.6     949.8     174.9      92.0    1089.0
       8179     162.0     264.2     950.5     175.2      91.7    1088.9
       8180     162.3     263.9     950.5     175.0      91.6    1089.1
       8181     161.9     264.0     950.4     174.9      92.0    1089.2
       8182     162.8     263.8     950.7     175.1      92.1    1088.8
       8183     162.4     264.1     950.6     174.9      91.6    1089.0
       8184     162.2     264.1     950.4     174.9      92.1    1088.8
       8185     162.1     264.1     950.7     174.7      92.2    1089.0
       8186     161.5     264.2     950.5     174.8      91.9    1088.8
       8187     162.2     264.0     950.7     174.8      91.9    1089.0
       8188     162.5     263.6     950.6     174.7      91.8    1089.3
       8189     162.1     264.2     950.4     174.8      91.3    1088.9
       8190     162.2     264.5     950.8     174.7      91.3    1088.7
       8191     162.2     264.3     950.3     174.8      91.4    1089.1
       8192     162.3     264.4     950.6     174.9      91.8    1089.1
       8193     162.2     263.9     950.7     175.0      91.9    1089.1
       8194     162.6     264.8     950.5     174.8      91.5    1089.4
       8195     162.3     263.8     950.6     175.0      91.5    1088.6
       8196     161.7     263.7     950.4     175.1      91.4    1089.3
       8197     162.2     264.0     950.3     175.4      91.2    1089.2
       8198     162.5     264.5     950.3     174.9      91.5    1089.0
       8199     162.0     264.2     950.8     174.6      92.1    1088.8
       8200     161.7     263.4     951.3     174.7      91.6    1089.1
       8201     162.2     264.2     950.6     174.8      91.7    1089.1
       8202     162.0     263.8     950.9     175.1      91.6    1089.1
       8203     161.5     263.6     950.8     174.8      91.7    1089.4
       8204     162.2     264.1     951.0     174.7      91.7    1089.5
       8205     162.0     264.7     950.1     175.0      91.7    1089.0
       8206     161.6     263.8     950.5     174.9      91.5    1089.1
       8207     162.0     264.3     950.7     174.6      91.7    1089.6
       8208     162.2     264.7     951.0     174.6      91.8    1089.1
       8209     162.2     263.8     950.4     174.9      91.7    1089.2
       8210     162.0     264.2     950.5     174.6      91.6    1088.5
       8211     161.7     264.3     951.1     174.8      91.5    1089.0
       8212     161.9     263.9     950.8     175.0      91.3    1089.0
       8213     162.1     264.1     950.1     174.8      91.6    1089.5
       8214     162.2     264.1     950.3     175.0      91.6    1089.1
       8215     161.8     263.9     950.3     175.0      92.0    1089.4
       8216     162.0     264.1     950.3     174.9      91.6    1089.3
       8217     162.3     263.9     950.5     175.1      91.5    1089.5
       8218     162.0     264.5     950.8     174.9      91.4    1089.5
       8219     161.9     264.5     950.4     175.1      91.4    1089.6
       8220     161.9     264.2     950.0     175.1      91.9    1089.4
       8221     162.1     263.7     950.2     175.0      91.5    1089.4
       8222     161.8     264.1     951.0     174.9      91.6    1088.1
       8223     162.1     263.9     950.7     174.6      91.4    1088.1
       8224     162.3     264.5     950.5     174.8      91.6    1089.7
       8225     161.7     264.3     950.7     175.0      92.4    1089.3
       8226     161.7     264.5     950.8     175.2      91.7    1088.5
       8227     161.7     263.6     950.7     175.2      91.6    1089.6
       8228     162.0     264.3     950.7     174.7      91.7    1089.2
       8229     162.2     264.6     950.2     174.8      91.9    1089.4
       8230     162.3     265.0     975.2     174.8      91.1    1088.2
       8231     162.9     264.1     959.5     175.5      91.5    1088.7
       8232     163.3     263.7     963.2     175.8      90.6    1088.2
       8233     164.0     263.6     947.0     175.9      90.5    1088.4
       8234     164.7     262.6     937.6     175.9      90.4    1088.3
       8235     166.9     262.3     951.2     177.0      89.6    1088.4
       8236     166.8     261.6     951.2     176.8      89.2    1089.0
       8237     166.1     261.4     948.4     176.5      89.4    1088.6
       8238     164.4     263.0     950.4     176.4      90.3    1088.5
       8239     164.1     262.8     955.5     175.4      90.5    1088.7
       8240     164.2     262.8     954.1     175.9      90.0    1089.0
       8241     163.5     262.9     957.4     176.0      90.8    1088.9
       8242     161.6     264.1     945.0     174.7      92.2    1088.7
       8243     160.0     264.6     961.4     174.3      92.9    1088.9
       8244     159.7     266.3     947.4     174.6      93.5    1088.6
       8245     158.6     266.1     944.2     174.3      94.5    1088.6
       8246     156.9     267.8     950.8     173.5      95.5    1088.4
       8247     153.7     269.1     949.5     172.3      97.8    1088.6
       8248     152.0     270.1     938.0     172.3      99.5    1088.5
       8249     149.5     270.7     952.2     171.3      99.8    1088.6
       8250     148.3     272.4     947.3     170.7     101.4    1088.9
       8251     146.5     273.9     951.8     170.0     102.9    1088.5
       8252     144.6     275.0     945.6     169.3     103.8    1088.9
       8253     142.4     274.7     957.6     168.9     105.2    1088.7
       8254     139.5     277.4     961.1     167.6     107.1    1088.8
       8255     136.0     278.6     951.4     166.2     109.5    1088.7
       8256     133.1     280.1     941.9     165.2     111.0    1088.7
       8257     131.5     281.0     954.2     164.8     112.1    1088.4
       8258     131.0     280.7     948.3     165.3     111.9    1088.6
