~Version Information
        VERS.      2.0                            : CWLS log ASCII Standard -VERSION 2.0
        WRAP.      NO                             : One line per depth step
~Well Information Block
#MNEM.UNIT                DATA                         DESCRIPTION
#----- -----           ----------           -----------------------
        STRT.M     6579                           : Глубина первой строки данных
        STOP.M     9298                           : Глубина последней строки данных
        STEP.M     1                              : Шаг глубины
        NULL.      -999.25                        : NULL VALUE
        COMP.                                     : Имя компании
        WELL.                                     : Название скважины
         FLD.                                     : Месторождение
         LOC.                                     : LOCATION
        PROV.                                     : PROVINCE
        SRVC.      АМК "Горизонт"                 : SERVICE COMPANY
         LIC.                                     : ERCB LICENCE NUMBER
        DATE.                                     : LOG DATE
         UWI.                                     : UNIQUE WELL ID
~Curve Information Block
#MNEM.UNIT                                    Curve Description
#---------                               ----------------------------
        DEPT.M                                    : 1   DEPTH
          GX.G                                    : Incl2_Inclin_accel_X_CLC
          GY.G                                    : Incl2_Inclin_accel_Y_CLC
          GZ.G                                    : Incl2_Inclin_accel_Z_CLC
          HX.mT                                   : Incl2_Inclin_magnit_X_CLC
          HY.mT                                   : Incl2_Inclin_magnit_Y_CLC
          HZ.mT                                   : Incl2_Inclin_magnit_Z_CLC
~Parameter Information Section
#MNEM.UNIT              Value                              Description
#---------  ----------------------------------------   -----------------------------------
~O Прочие данные
#----------------------------
~A   DEPT         AX         AY         AZ         HX         HY         HZ
# ...
       6915     149.6     122.2     980.6      81.6     -51.9    1103.2
       6916     149.7     122.3     981.0      81.5     -51.4    1103.1
       6917     149.8     122.0     980.9      81.7     -51.9    1103.0
       6918     150.3     122.4     981.0      81.6     -52.2    1103.3
       6919     150.0     122.6     981.6      81.7     -51.5    1103.2
       6920     149.3     122.0     980.9      82.0     -51.7    1103.4
       6921     149.8     121.9     980.9      82.1     -52.1    1103.1
       6922     149.9     122.6     981.2      82.2     -52.1    1103.3
       6923     149.5     122.0     980.8      81.8     -51.5    1103.0
       6924     150.1     122.8     981.0      81.8     -51.7    1103.6
       6925     149.6     122.5     981.1      81.6     -52.0    1103.4
       6926     149.8     122.3     980.9      81.7     -52.2    1102.9
       6927     150.1     123.0     981.2      81.5     -52.0    1103.0
       6928     149.9     122.5     981.2      81.3     -51.9    1103.5
       6929     150.1     122.6     980.6      81.1     -52.2    1103.3
       6930     149.5     122.0     980.6      81.4     -52.5    1103.2
       6931     149.7     122.7     981.2      81.4     -52.1    1103.1
       6932     150.0     122.5     980.8      81.7     -52.0    1103.2
       6933     150.2     122.8     980.5      81.8     -51.9    1103.0
       6934     150.3     122.8     980.2      81.3     -52.0    1102.5
       6935     150.2     122.7     981.3      81.6     -52.1    1102.9
       6936     150.0     122.0     981.2      81.3     -52.4    1102.9
       6937     149.6     122.9     981.0      81.7     -51.8    1103.2
       6938     150.0     122.9     980.7      81.5     -52.2    1102.8
       6939     149.9     122.6     980.7      81.4     -52.2    1102.9
       6940     149.7     122.5     980.6      81.5     -52.0    1103.3
       6941     150.1     122.1     980.4      81.4     -52.3    1103.0
       6942     150.1     122.7     981.1      81.6     -51.7    1102.9
       6943     149.6     122.5     981.3      81.6     -52.2    1102.5
       6944     149.7     121.6     980.7      81.5     -52.2    1103.4
       6945     150.0     122.3     981.1      81.4     -51.9    1102.7
       6946     149.9     122.8     980.5      81.5     -51.7    1102.7
       6947     149.3     122.0     980.8      81.6     -51.8    1103.1
       6948     149.8     122.3     980.8      81.8     -51.5    1103.0
       6949     149.8     122.6     980.6      81.6     -52.2    1103.1
       6950     149.9     122.2     980.8      81.8     -51.9    1103.0
       6951     150.1     122.1     980.7      81.3     -52.1    1103.4
       6952     149.8     122.5     980.5      81.7     -51.8    1103.0
       6953     149.8     122.3     980.7      81.4     -51.9    1103.2
       6954     149.7     122.6     981.0      81.8     -52.2    1103.1
       6955     149.7     122.4     980.7      81.3     -52.5    1103.3
       6956     149.3     122.3     981.0      81.3     -52.1    1103.0
       6957     149.8     123.2     981.4      81.8     -51.8    1103.0
       6958     148.4     123.1     961.7      80.8     -51.7    1103.0
       6959     149.0     123.8     976.9      81.3     -51.4    1103.2
       6960     149.2     122.8     982.3      81.2     -52.3    1103.1
       6961     149.4     121.6     979.7      80.9     -52.0    1102.8
       6962     149.4     121.8     980.6      80.5     -52.2    1102.9
       6963     150.6     121.6     970.9      80.4     -53.0    1103.4
       6964     150.9     121.5     972.8      80.4     -52.9    1103.5
       6965     150.0     119.6     979.7      80.3     -53.3    1103.1
       6966     151.1     119.5     978.5      80.2     -54.1    1102.9
       6967     151.4     119.1     979.7      80.1     -54.2    1103.1
       6968     149.5     118.9     985.4      79.7     -54.3    1102.9
       6969     149.7     121.2    1006.9      80.5     -54.0    1103.1
       6970     151.0     120.5     981.1      80.5     -53.9    1102.7
       6971     150.7     119.6     981.2      80.3     -53.4    1103.0
       6972     151.2     120.3     981.5      80.1     -53.7    1103.1
       6973     150.1     120.4     981.2      80.0     -53.5    1102.9
       6974     151.2     120.5     981.1      80.3     -53.2    1102.9
       6975     151.2     120.5     981.4      80.0     -53.5    1102.8
       6976     150.9     120.6     981.1      80.3     -53.4    1103.0
       6977     151.1     120.3     980.6      80.2     -53.6    1102.8
       6978     150.4     120.2     981.3      80.7     -53.4    1102.9
       6979     150.9     120.1     981.0      80.4     -53.4    1102.9
       6980     151.1     120.2     981.6      80.4     -53.5    1103.1
       6981     150.9     120.3     981.3      80.2     -53.8    1103.4
       6982     151.3     120.0     980.8      80.4     -53.4    1103.0
       6983     150.6     120.1     981.2      80.1     -53.6    1103.0
       6984     151.2     120.2     981.1      80.4     -54.0    1103.3
       6985     150.4     120.1     981.0      80.0     -53.6    1102.8
       6986     150.8     120.1     981.0      80.2     -53.2    1103.0
       6987     151.8     120.7     981.0      80.1     -53.7    1102.9
       6988     150.5     120.0     981.1      80.5     -53.7    1103.1
       6989     151.0     120.8     980.8      80.2     -53.8    1102.6
       6990     151.5     120.1     980.9      80.1     -53.1    1102.7
       6991     151.1     120.1     981.5      79.8     -53.7    1103.0
       6992     151.2     120.3     980.6      80.2     -53.8    1102.9
       6993     150.7     120.3     980.8      79.9     -53.5    1104.5
       6994     151.3     120.3     980.8      79.8     -53.3    1103.2
       6995     151.3     120.1     981.0      79.8     -53.8    1102.7
       6996     150.5     120.1     980.7      80.1     -53.5    1102.9
       6997     151.4     120.8     980.4      80.2     -53.6    1102.8
       6998     150.7     120.0     980.8      79.7     -53.5    1102.6
       6999     150.5     120.3     981.2      80.2     -54.0    1103.8
       7000     151.4     120.1     980.2      80.5     -53.7    1102.9
       7001     150.8     120.0     981.1      80.3     -53.9    1103.3
       7002     150.5     120.0     981.4      80.1     -53.7    1103.6
       7003     151.5     120.7     980.9      80.0     -54.0    1102.3
       7004     151.0     120.9     981.5      79.9     -53.3    1103.1
       7005     151.7     120.6     980.9      79.8     -53.4    1103.5
       7006     150.9     120.3     980.6      80.0     -53.7    1102.2
       7007     151.6     120.1     981.3      80.1     -53.1    1102.4
       7008     151.2     120.3     980.3      80.3     -53.3    1102.9
       7009     150.9     120.2     980.7      80.2     -53.3    1102.6
       7010     151.0     120.5     981.0      80.3     -53.5    1102.9
       7011     151.3     120.1     981.0      80.2     -53.5    1102.5
       7012     151.0     120.8     980.8      80.0     -53.5    1103.0
       7013     150.8     120.5     981.3      80.3     -53.4    1103.0
       7014     150.7     120.1     980.8      79.9     -53.3    1103.8
       7015     151.1     120.3     981.0      79.9     -53.6    1103.5
       7016     150.7     120.3     980.9      80.6     -53.7    1103.7
       7017     151.1     120.8     981.7      80.0     -53.3    1103.9
       7018     150.8     120.2     980.5      80.3     -53.2    1103.1
       7019     151.5     120.3     981.0      80.0     -53.7    1103.5
       7020     150.3     120.1     981.1      80.4     -53.1    1102.4
       7021     151.1     120.0     981.5      80.9     -53.4    1102.4
       7022     150.9     120.4     980.9      80.5     -53.8    1102.3
       7023     151.3     120.4     981.4      80.4     -53.8    1103.4
       7024     151.2     120.0     981.0      80.4     -53.4    1102.6
       7025     151.5     120.4     980.9      80.4     -53.6    1103.7
       7026     150.8     120.1     980.6      80.6     -53.3    1103.6
