~Version Information
        VERS.      2.0                            : CWLS log ASCII Standard -VERSION 2.0
        WRAP.      NO                             : One line per depth step
~Well Information Block
#MNEM.UNIT                DATA                         DESCRIPTION
#----- -----           ----------           -----------------------
        STRT.M     6579                           : Глубина первой строки данных
        STOP.M     9298                           : Глубина последней строки данных
        STEP.M     1                              : Шаг глубины
        NULL.      -999.25                        : NULL VALUE
        COMP.                                     : Имя компании
        WELL.                                     : Название скважины
         FLD.                                     : Месторождение
         LOC.                                     : LOCATION
        PROV.                                     : PROVINCE
        SRVC.      АМК "Горизонт"                 : SERVICE COMPANY
         LIC.                                     : ERCB LICENCE NUMBER
        DATE.                                     : LOG DATE
         UWI.                                     : UNIQUE WELL ID
~Curve Information Block
#MNEM.UNIT                                    Curve Description
#---------                               ----------------------------
        DEPT.M                                    : 1   DEPTH
          GX.G                                    : Incl2_Inclin_accel_X_CLC
          GY.G                                    : Incl2_Inclin_accel_Y_CLC
          GZ.G                                    : Incl2_Inclin_accel_Z_CLC
          HX.mT                                   : Incl2_Inclin_magnit_X_CLC
          HY.mT                                   : Incl2_Inclin_magnit_Y_CLC
          HZ.mT                                   : Incl2_Inclin_magnit_Z_CLC
~Parameter Information Section
#MNEM.UNIT              Value                              Description
#---------  ----------------------------------------   -----------------------------------
~O Прочие данные
#----------------------------
~A   DEPT         AX         AY         AZ         HX         HY         HZ
# ...
       8931     222.7     268.2     934.8     233.6     100.9    1074.5
       8932     222.8     268.1     931.5     233.5     101.2    1074.9
       8933     222.7     268.3     943.3     233.1     101.6    1075.0
       8934     223.1     267.5     939.4     233.8     101.1    1075.2
       8935     222.6     266.9     936.5     233.5     101.0    1075.6
       8936     223.4     267.6     944.4     234.2     100.5    1075.4
       8937     223.8     266.9     934.4     233.8     100.2    1074.7
       8938     223.6     266.3     938.3     234.1     100.7    1075.3
       8939     223.7     266.2     941.3     234.5     100.1    1075.1
       8940     224.4     265.7     929.5     234.6      98.8    1075.5
       8941     225.9     263.3     928.9     235.2      97.7    1075.1
       8942     226.4     263.7     938.3     235.5      98.4    1075.4
       8943     225.7     264.5     930.8     235.1      98.5    1075.7
       8944     227.0     264.3     939.2     235.0      97.7    1075.7
       8945     225.8     264.2     940.5     235.2      98.0    1075.9
       8946     224.2     264.6     944.8     234.9      98.4    1075.6
       8947     223.6     265.7     928.0     234.3     100.1    1076.2
       8948     222.4     266.5     931.7     233.3     100.9    1076.6
       8949     222.6     267.5     938.4     233.6     101.3    1076.3
       8950     220.7     268.1     940.3     233.0     102.2    1076.3
       8951     218.9     267.9     929.7     233.2     103.1    1077.2
       8952     218.5     269.2     937.4     232.3     103.4    1077.0
       8953     217.0     269.6     938.2     231.6     104.2    1076.9
       8954     217.2     269.2     935.8     231.7     104.7    1077.1
       8955     215.1     271.8     929.8     230.9     106.9    1077.2
       8956     212.2     272.4     921.7     230.6     107.9    1077.4
       8957     210.1     274.3     932.9     229.7     109.4    1077.4
       8958     208.9     275.1     947.5     229.0     110.5    1077.9
       8959     206.9     276.2     940.9     228.4     111.7    1077.8
       8960     204.8     277.4     922.1     228.0     112.7    1078.1
       8961     203.8     278.7     937.9     227.1     114.5    1078.2
       8962     202.3     279.1     938.1     226.7     115.3    1078.3
       8963     200.5     279.2     945.4     226.1     115.5    1078.4
       8964     201.1     279.7     940.7     226.1     116.0    1078.6
       8965     199.6     279.5     936.2     225.8     115.6    1078.5
       8966     198.4     277.7     937.4     225.1     116.0    1078.9
       8967     198.2     279.4     929.1     225.6     116.2    1078.8
       8968     197.8     279.4     943.3     225.8     115.7    1079.4
       8969     199.2     278.2     936.9     226.2     114.1    1079.1
       8970     198.9     277.2     944.9     225.8     113.6    1078.9
       8971     198.7     276.2     936.3     225.9     113.6    1080.3
       8972     198.4     276.3     937.8     226.2     112.7    1080.1
       8973     198.3     275.6     937.5     225.8     111.7    1080.4
       8974     198.9     275.3     947.6     226.2     111.4    1080.5
       8975     198.3     274.2     942.1     226.2     110.3    1081.1
       8976     198.0     273.0     948.2     225.8     109.6    1081.3
       8977     198.5     272.8     943.1     227.6     108.8    1082.1
       8978     199.7     270.3     941.5     226.9     106.7    1081.9
       8979     200.6     270.0     937.7     227.0     105.4    1081.9
       8980     201.2     268.5     939.2     227.5     103.3    1082.2
       8981     201.8     267.8     941.6     228.1     102.7    1081.9
       8982     200.6     266.5     947.5     228.0     101.7    1082.7
       8983     200.6     266.2     932.7     228.0     100.9    1082.7
       8984     201.0     266.1     944.7     227.9      99.7    1081.7
       8985     201.1     264.1     938.5     227.6      98.8    1082.7
       8986     202.1     262.3     941.5     228.7      96.0    1083.8
       8987     202.9     262.3     935.2     228.4      94.9    1083.5
       8988     201.1     261.1     952.8     228.1      95.3    1084.1
       8989     199.9     262.2     944.1     227.6      94.9    1084.0
       8990     199.6     260.6     943.1     227.6      94.1    1084.0
       8991     201.0     259.7     936.6     227.1      90.8    1086.7
       8992     199.6     258.4     946.2     233.1     108.1    1086.5
       8993     198.6     259.0     952.2     228.3      91.1    1085.5
       8994     200.6     257.2     948.8     227.8      90.0    1084.1
       8995     199.6     257.1     937.3     227.4      89.6    1084.2
       8996     199.1     257.4     951.5     227.3      90.2    1084.0
       8997     198.5     256.2     937.0     226.7      89.4    1084.4
       8998     199.2     255.2     933.0     227.2      87.3    1084.6
       8999     199.1     254.7     942.6     227.1      86.8    1084.7
       9000     198.3     255.4     946.0     226.8      87.1    1085.1
       9001     198.6     254.8     945.4     227.0      87.0    1085.3
       9002     198.2     254.9     945.6     226.7      87.4    1084.6
       9003     198.1     254.7     945.4     226.7      87.3    1084.6
       9004     197.9     254.4     945.2     226.8      87.4    1085.4
       9005     198.5     255.7     945.8     226.6      87.1    1085.3
       9006     198.4     255.0     946.2     227.0      87.5    1085.2
       9007     198.2     254.8     946.4     226.7      87.3    1084.7
       9008     197.7     255.1     946.6     226.9      87.2    1084.9
       9009     198.2     255.5     946.1     226.4      87.1    1085.2
       9010     198.4     255.4     946.2     227.2      87.4    1085.0
       9011     198.4     255.1     945.9     226.8      87.9    1085.1
       9012     198.1     255.3     945.9     227.0      87.2    1085.0
       9013     198.4     255.1     946.3     226.9      87.0    1085.1
       9014     198.5     255.3     946.1     227.3      87.2    1085.4
       9015     197.9     255.3     946.0     227.1      87.2    1085.2
       9016     198.6     255.5     945.7     226.8      87.1    1085.4
       9017     199.0     255.4     945.4     227.1      87.1    1085.3
       9018     197.9     255.0     946.1     227.0      87.5    1085.2
       9019     198.1     255.1     946.0     226.7      87.2    1085.2
       9020     198.7     255.7     946.1     226.8      87.2    1085.1
       9021     198.0     254.9     945.9     226.8      87.1    1085.2
       9022     197.9     254.9     946.4     227.0      87.2    1084.7
       9023     198.6     255.0     946.3     227.2      87.7    1085.3
       9024     198.3     254.8     946.0     226.9      87.0    1085.1
       9025     198.6     255.4     946.0     226.7      87.1    1085.6
       9026     198.6     255.4     946.2     226.5      87.1    1085.1
       9027     197.9     254.9     946.6     227.0      87.1    1085.1
       9028     198.9     255.3     946.3     227.2      87.1    1085.8
       9029     198.8     255.4     946.0     226.8      86.7    1085.3
       9030     197.8     255.2     946.1     227.0      87.3    1085.3
       9031     198.5     255.7     946.0     226.8      86.9    1085.3
       9032     198.4     254.9     945.6     227.0      87.0    1085.3
       9033     198.5     255.2     946.0     227.3      87.5    1085.3
       9034     198.0     254.3     946.1     226.9      86.9    1085.5
       9035     198.4     255.2     946.5     226.9      86.9    1085.1
       9036     198.1     255.3     946.1     227.2      87.1    1085.4
       9037     198.2     254.9     945.9     227.2      87.1    1085.6
       9038     197.8     254.8     946.1     226.9      86.8    1085.7
       9039     198.7     256.5     946.0     226.7      86.9    1085.7
       9040     198.1     255.2     945.8     227.4      87.2    1085.6
       9041     197.8     255.2     946.3     226.8      87.2    1085.3
       9042     198.6     255.2     946.2     227.3      87.7    1085.4
