~Version Information
        VERS.      2.0                            : CWLS log ASCII Standard -VERSION 2.0
        WRAP.      NO                             : One line per depth step
~Well Information Block
#MNEM.UNIT                DATA                         DESCRIPTION
#----- -----           ----------           -----------------------
        STRT.M     6579                           : Глубина первой строки данных
        STOP.M     9298                           : Глубина последней строки данных
        STEP.M     1                              : Шаг глубины
        NULL.      -999.25                        : NULL VALUE
        COMP.                                     : Имя компании
        WELL.                                     : Название скважины
         FLD.                                     : Месторождение
         LOC.                                     : LOCATION
        PROV.                                     : PROVINCE
        SRVC.      АМК "Горизонт"                 : SERVICE COMPANY
         LIC.                                     : ERCB LICENCE NUMBER
        DATE.                                     : LOG DATE
         UWI.                                     : UNIQUE WELL ID
~Curve Information Block
#MNEM.UNIT                                    Curve Description
#---------                               ----------------------------
        DEPT.M                                    : 1   DEPTH
          GX.G                                    : Incl2_Inclin_accel_X_CLC
          GY.G                                    : Incl2_Inclin_accel_Y_CLC
          GZ.G                                    : Incl2_Inclin_accel_Z_CLC
          HX.mT                                   : Incl2_Inclin_magnit_X_CLC
          HY.mT                                   : Incl2_Inclin_magnit_Y_CLC
          HZ.mT                                   : Incl2_Inclin_magnit_Z_CLC
~Parameter Information Section
#MNEM.UNIT              Value                              Description
#---------  ----------------------------------------   -----------------------------------
~O Прочие данные
#----------------------------
~A   DEPT         AX         AY         AZ         HX         HY         HZ
# ...
       7923     175.1     208.5     967.0     151.5      30.9    1095.4
       7924     174.7     207.2     957.8     151.8      30.7    1095.0
       7925     176.0     208.3     963.0     152.8      31.5    1095.7
       7926     175.6     208.3     959.8     152.5      32.7    1095.1
       7927     176.3     208.7     970.7     153.2      32.5    1094.9
       7928     177.2     209.3     941.9     154.0      32.2    1095.7
       7929     175.5     209.2     970.7     154.9      33.6    1095.4
       7930     178.1     209.3     965.6     155.6      33.1    1095.1
       7931     178.5     210.2     971.3     155.5      33.6    1095.2
       7932     179.0     209.4     959.7     156.5      33.6    1094.9
       7933     181.7     208.4     954.2     157.4      32.8    1095.1
       7934     183.0     209.3     954.1     158.2      32.5    1094.8
       7935     183.4     208.2     970.7     158.8      32.2    1095.2
       7936     184.3     208.2     946.2     159.3      32.4    1095.0
       7937     184.6     208.2     955.2     159.6      32.9    1094.5
       7938     185.8     207.9     956.4     160.1      32.8    1094.7
       7939     186.6     208.0     957.1     160.4      32.7    1094.3
       7940     187.4     208.4     970.9     161.2      33.5    1094.4
       7941     185.9     209.7     972.2     161.3      34.6    1094.2
       7942     186.1     211.3     959.5     162.1      35.5    1094.3
       7943     185.7     211.1     964.6     162.5      36.0    1094.5
       7944     187.8     210.1     964.1     163.0      35.7    1094.0
       7945     189.5     209.6     967.9     163.1      34.9    1094.6
       7946     188.3     209.9     963.2     163.8      35.2    1093.7
       7947     189.7     210.1     972.8     164.4      35.8    1094.0
       7948     189.2     211.0     964.6     164.0      35.7    1093.7
       7949     189.0     211.8     954.6     164.3      36.6    1094.5
       7950     188.3     212.4     938.1     164.8      37.4    1093.8
       7951     187.7     213.1     965.8     165.0      37.9    1093.6
       7952     187.9     214.1     967.5     164.7      38.9    1093.8
       7953     185.3     216.0     949.7     165.3      39.8    1093.4
       7954     185.9     216.9     962.0     165.1      41.5    1093.6
       7955     185.9     216.0     948.4     165.6      41.4    1093.8
       7956     187.2     216.5     951.7     166.1      41.3    1093.7
       7957     189.0     217.4     949.8     166.4      41.8    1093.9
       7958     188.8     215.6     946.0     165.7      42.6    1093.5
       7959     186.7     217.0     962.7     166.2      42.3    1093.6
       7960     187.3     217.2     953.2     166.7      41.8    1093.2
       7961     188.1     216.7     952.6     166.4      41.3    1093.4
       7962     189.2     215.8     956.6     167.0      41.0    1093.4
       7963     189.9     215.4     966.8     167.2      40.3    1093.4
       7964     187.5     216.9     965.1     167.5      40.7    1094.0
       7965     192.4     216.1     968.9     167.6      40.4    1093.5
       7966     192.3     214.6     960.1     167.8      40.5    1093.9
       7967     192.8     214.9     956.3     168.2      40.7    1094.5
       7968     191.9     214.9     954.4     168.0      40.2    1093.4
       7969     191.8     214.8     961.9     168.4      40.3    1092.6
       7970     193.4     215.4     970.6     169.0      40.7    1093.5
       7971     193.4     215.0     954.4     168.7      40.4    1093.3
       7972     193.7     214.9     958.8     168.7      40.0    1092.6
       7973     195.3     213.2     962.2     168.3      39.8    1092.5
       7974     193.6     214.1     957.3     169.1      40.5    1092.4
       7975     192.4     215.5     963.5     168.8      40.9    1093.5
       7976     192.8     215.3     953.5     168.1      41.4    1092.8
       7977     189.8     219.9     955.9     168.2      41.6    1093.5
       7978     192.1     217.2     957.6     168.3      42.5    1093.4
       7979     191.4     217.2     957.0     167.9      43.0    1092.6
       7980     190.0     218.8     956.0     168.3      44.3    1094.1
       7981     189.8     219.6     961.1     167.8      44.6    1092.6
       7982     189.3     219.8     954.9     168.3      44.6    1092.1
       7983     188.9     220.2     960.5     167.9      45.8    1093.2
       7984     187.7     221.8     962.0     167.4      46.2    1092.5
       7985     186.9     221.8     958.6     167.2      46.5    1092.6
       7986     185.4     224.0     957.8     167.0      48.2    1092.5
       7987     186.7     222.8     954.6     167.0      48.1    1092.6
       7988     184.9     223.3     973.5     166.7      48.2    1092.9
       7989     184.2     223.9     975.2     166.4      48.7    1092.6
       7990     183.1     224.7     960.2     166.2      49.7    1093.0
       7991     182.4     225.3     939.3     166.4      49.8    1092.5
       7992     182.7     224.8     934.2     166.5      50.3    1092.7
       7993     182.7     225.6     956.4     166.4      50.5    1092.5
       7994     181.7     224.8     956.4     166.6      50.0    1092.7
       7995     182.0     225.8     956.5     166.4      50.6    1093.0
       7996     181.7     225.6     956.9     166.2      50.6    1092.5
       7997     181.9     225.2     956.2     166.6      50.4    1092.6
       7998     181.4     224.7     956.9     166.3      49.8    1093.2
       7999     181.5     225.6     956.6     166.4      50.2    1093.0
       8000     181.8     226.1     956.8     166.2      50.3    1092.7
       8001     182.4     225.9     957.1     166.5      50.4    1093.0
       8002     181.9     225.8     957.0     166.5      50.3    1093.1
       8003     181.5     225.3     957.0     166.4      50.3    1092.5
       8004     181.1     225.4     956.7     166.3      50.0    1092.8
       8005     181.4     225.6     957.1     166.2      50.7    1093.4
       8006     181.4     225.9     956.7     166.5      50.5    1092.8
       8007     181.4     225.9     956.4     166.1      50.6    1092.5
       8008     181.2     225.7     956.7     166.3      50.4    1092.6
       8009     182.5     226.1     956.7     166.6      50.5    1092.8
       8010     181.1     225.2     956.4     166.0      50.3    1092.9
       8011     181.5     225.4     956.8     166.3      50.7    1092.8
       8012     181.4     225.4     956.2     166.5      50.4    1093.1
       8013     182.0     225.5     956.4     166.1      50.7    1093.2
       8014     181.8     225.2     956.8     166.5      50.4    1093.2
       8015     181.6     225.3     957.5     166.5      50.6    1093.1
       8016     181.7     225.4     957.6     166.5      50.4    1092.6
       8017     182.0     225.3     956.8     166.1      50.7    1093.0
       8018     181.4     225.5     956.7     166.4      50.2    1092.8
       8019     181.8     225.9     957.1     166.1      50.4    1093.1
       8020     181.7     225.4     956.9     166.3      50.7    1093.3
       8021     182.0     225.6     956.6     166.2      50.7    1092.9
       8022     181.6     225.5     956.8     166.3      50.5    1093.0
       8023     181.6     225.4     956.0     166.3      50.6    1093.1
       8024     182.1     225.6     957.0     166.3      50.3    1093.1
       8025     181.2     225.7     956.7     166.7      50.5    1093.4
       8026     181.3     225.8     956.8     166.3      50.1    1093.1
       8027     182.1     225.9     957.2     166.7      50.1    1093.1
       8028     181.4     225.4     956.4     166.6      50.6    1093.1
       8029     182.4     225.7     956.5     166.5      50.6    1093.5
       8030     181.2     225.0     956.6     166.3      50.1    1092.7
       8031     182.4     225.8     956.5     166.8      50.4    1093.2
       8032     182.2     225.7     956.6     166.3      50.3    1093.4
       8033     181.6     225.3     956.5     166.2      50.1    1092.9
       8034     181.7     225.7     956.5     166.5      50.2    1093.0
