~Version Information
        VERS.      2.0                            : CWLS log ASCII Standard -VERSION 2.0
        WRAP.      NO                             : One line per depth step
~Well Information Block
#MNEM.UNIT                DATA                         DESCRIPTION
#----- -----           ----------           -----------------------
        STRT.M     6579                           : Глубина первой строки данных
        STOP.M     9298                           : Глубина последней строки данных
        STEP.M     1                              : Шаг глубины
        NULL.      -999.25                        : NULL VALUE
        COMP.                                     : Имя компании
        WELL.                                     : Название скважины
         FLD.                                     : Месторождение
         LOC.                                     : LOCATION
        PROV.                                     : PROVINCE
        SRVC.      АМК "Горизонт"                 : SERVICE COMPANY
         LIC.                                     : ERCB LICENCE NUMBER
        DATE.                                     : LOG DATE
         UWI.                                     : UNIQUE WELL ID
~Curve Information Block
#MNEM.UNIT                                    Curve Description
#---------                               ----------------------------
        DEPT.M                                    : 1   DEPTH
          GX.G                                    : Incl2_Inclin_accel_X_CLC
          GY.G                                    : Incl2_Inclin_accel_Y_CLC
          GZ.G                                    : Incl2_Inclin_accel_Z_CLC
          HX.mT                                   : Incl2_Inclin_magnit_X_CLC
          HY.mT                                   : Incl2_Inclin_magnit_Y_CLC
          HZ.mT                                   : Incl2_Inclin_magnit_Z_CLC
~Parameter Information Section
#MNEM.UNIT              Value                              Description
#---------  ----------------------------------------   -----------------------------------
~O Прочие данные
#----------------------------
~A   DEPT         AX         AY         AZ         HX         HY         HZ
# ...
       8259     130.5     280.6     950.8     164.9     112.9    1088.6
       8260     128.5     282.4     950.9     163.9     114.1    1088.5
       8261     126.3     283.8     958.0     163.6     116.0    1088.8
       8262     124.7     283.8     937.6     163.1     117.0    1088.6
       8263     125.7     284.1     949.8     163.0     117.0    1088.6
       8264     125.7     283.3     955.8     163.5     116.6    1088.8
       8265     126.7     283.9     942.4     163.7     116.4    1088.6
       8266     126.2     283.9     957.5     164.4     116.7    1088.0
       8267     126.6     284.3     945.8     165.0     116.8    1088.1
       8268     128.2     283.9     935.2     165.6     116.1    1088.3
       8269     131.0     283.1     954.8     166.9     115.1    1088.0
       8270     134.7     282.4     935.3     168.8     112.7    1088.0
       8271     137.7     280.4     950.9     170.2     111.6    1087.9
       8272     139.3     278.9     944.5     171.6     110.2    1088.0
       8273     142.8     278.3     961.2     172.9     108.4    1087.7
       8274     147.4     275.4     951.8     175.4     104.8    1087.8
       8275     151.4     274.0     954.8     177.3     103.0    1087.4
       8276     154.5     272.5     946.3     178.9     101.1    1087.6
       8277     156.5     271.2     954.2     180.4      99.6    1086.5
       8278     160.6     267.7     954.0     182.6      96.5    1087.1
       8279     163.4     265.9     949.1     184.2      94.7    1087.1
       8280     165.7     266.0     949.0     185.7      93.4    1086.9
       8281     168.2     264.4     946.8     187.4      91.7    1086.6
       8282     169.2     267.8     947.4     189.2      91.8    1086.9
       8283     173.1     264.2     956.6     190.6      90.6    1086.6
       8284     173.1     262.2     955.1     190.9      89.9    1086.8
       8285     174.3     263.9     955.8     191.5      90.4    1086.2
       8286     174.0     263.0     934.5     192.7      90.6    1086.5
       8287     175.7     263.0     956.3     193.4      89.9    1086.2
       8288     176.2     262.1     940.6     194.1      89.7    1085.9
       8289     176.1     262.5     933.2     194.8      90.4    1085.7
       8290     173.8     262.7     948.4     194.2      92.2    1085.6
       8291     174.8     264.8     952.8     194.8      92.2    1085.5
       8292     174.1     265.1     955.8     195.1      93.2    1085.3
       8293     173.3     266.6     958.7     195.3      94.7    1085.2
       8294     171.9     266.7     960.9     195.6      94.8    1084.7
       8295     172.3     267.3     951.2     195.5      95.3    1085.6
       8296     171.5     268.0     949.0     195.2      97.0    1085.0
       8297     168.8     268.4     944.3     194.4      97.6    1085.4
       8298     165.9     270.8     957.9     193.7     100.6    1085.6
       8299     163.4     272.1     959.2     192.8     102.0    1083.6
       8300     164.2     273.4     946.4     193.2     101.6    1085.6
       8301     162.6     273.7     954.7     192.5     102.6    1085.3
       8302     161.5     274.8     949.9     191.6     104.9    1084.5
       8303     159.5     276.6     944.7     190.9     106.4    1085.3
       8304     155.3     278.3     942.9     189.9     109.6    1084.8
       8305     153.9     278.7     956.2     189.3     110.6    1084.8
       8306     151.8     279.8     943.8     188.6     111.4    1084.8
       8307     149.9     280.5     939.8     187.1     113.0    1083.9
       8308     147.5     282.9     944.3     186.3     115.1    1084.0
       8309     143.8     285.4     950.9     185.2     117.4    1085.4
       8310     141.9     285.0     945.5     184.2     118.6    1084.2
       8311     141.7     285.0     964.1     184.5     118.1    1085.1
       8312     141.2     286.5     951.6     183.3     119.3    1084.2
       8313     138.9     286.2     952.9     183.1     120.6    1084.7
       8314     137.9     288.0     942.4     181.9     121.4    1084.3
       8315     138.2     287.2     947.0     181.4     122.6    1084.2
       8316     133.8     289.6     946.8     180.5     123.9    1083.9
       8317     130.6     290.4     942.9     179.3     126.2    1084.6
       8318     130.9     290.7     947.9     179.0     126.1    1083.9
       8319     130.7     290.6     947.0     179.0     125.8    1084.6
       8320     132.1     290.2     948.5     179.5     125.2    1084.2
       8321     132.5     290.5     953.6     179.8     125.3    1083.7
       8322     132.8     290.3     966.0     180.2     125.1    1084.4
       8323     134.6     289.3     944.0     180.8     123.8    1084.0
       8324     136.2     288.4     949.0     181.3     123.1    1084.0
       8325     138.5     287.2     947.4     182.1     121.5    1083.9
       8326     139.4     287.7     942.1     182.6     121.7    1084.1
       8327     139.7     287.3     958.1     182.8     120.5    1084.2
       8328     141.7     286.0     956.2     183.9     119.2    1084.5
       8329     143.7     285.3     948.7     185.3     118.0    1084.4
       8330     144.7     285.4     947.9     185.0     117.6    1084.0
       8331     147.1     284.0     941.0     185.9     116.6    1084.1
       8332     148.2     283.7     949.4     186.4     115.9    1084.3
       8333     149.3     281.9     958.4     187.7     114.7    1084.1
       8334     151.1     282.5     945.3     188.4     113.9    1084.2
       8335     153.7     280.7     934.4     189.0     112.3    1084.2
       8336     154.9     280.2     954.5     189.1     111.9    1084.3
       8337     154.4     279.1     947.4     189.3     112.3    1084.1
       8338     154.6     280.4     946.6     189.1     111.7    1084.3
       8339     154.7     280.0     947.5     189.3     111.6    1084.1
       8340     155.1     280.9     947.3     189.6     111.8    1084.0
       8341     154.5     279.9     946.9     189.2     111.5    1084.4
       8342     154.7     280.9     947.5     189.3     112.0    1084.3
       8343     155.2     281.1     946.8     189.1     112.0    1084.2
       8344     154.2     280.1     946.5     189.4     111.8    1084.6
       8345     154.6     280.7     946.5     189.2     112.0    1084.5
       8346     155.3     280.8     946.9     189.3     111.8    1084.0
       8347     154.5     280.7     946.7     189.5     111.7    1084.5
       8348     154.5     280.1     946.5     189.1     112.2    1084.3
       8349     155.0     280.3     946.7     189.0     111.6    1084.4
       8350     154.7     280.7     947.3     189.5     112.0    1084.8
       8351     154.4     280.2     947.3     189.3     111.7    1084.1
       8352     154.8     280.7     946.8     189.4     111.8    1084.2
       8353     155.0     280.8     947.2     189.2     112.0    1084.6
       8354     154.4     281.2     946.9     189.2     111.9    1084.8
       8355     155.3     281.0     947.0     189.0     112.0    1084.6
       8356     154.7     280.1     946.7     189.3     111.9    1084.6
       8357     155.4     281.2     946.8     189.5     111.4    1084.5
       8358     154.7     280.5     947.4     189.3     111.3    1085.0
       8359     155.2     281.7     947.3     189.1     111.3    1084.7
       8360     154.6     280.5     947.4     189.7     111.6    1084.7
       8361     154.5     280.1     947.0     189.2     111.7    1084.8
       8362     154.9     280.8     947.0     189.5     111.7    1084.7
       8363     154.7     281.2     947.6     189.1     111.7    1084.9
       8364     154.8     280.7     946.9     189.1     111.8    1084.5
       8365     154.9     280.6     946.9     189.6     111.1    1084.9
       8366     154.7     280.4     946.9     189.9     111.5    1084.8
       8367     154.5     281.1     947.2     189.5     111.3    1085.0
       8368     155.0     280.3     946.6     189.2     111.5    1084.6
       8369     154.6     280.2     946.9     189.2     112.0    1084.7
       8370     154.8     280.7     946.6     189.7     111.8    1084.8
