~Version Information
        VERS.      2.0                            : CWLS log ASCII Standard -VERSION 2.0
        WRAP.      NO                             : One line per depth step
~Well Information Block
#MNEM.UNIT                DATA                         DESCRIPTION
#----- -----           ----------           -----------------------
        STRT.M     6579                           : Глубина первой строки данных
        STOP.M     9298                           : Глубина последней строки данных
        STEP.M     1                              : Шаг глубины
        NULL.      -999.25                        : NULL VALUE
        COMP.                                     : Имя компании
        WELL.                                     : Название скважины
         FLD.                                     : Месторождение
         LOC.                                     : LOCATION
        PROV.                                     : PROVINCE
        SRVC.      АМК "Горизонт"                 : SERVICE COMPANY
         LIC.                                     : ERCB LICENCE NUMBER
        DATE.                                     : LOG DATE
         UWI.                                     : UNIQUE WELL ID
~Curve Information Block
#MNEM.UNIT                                    Curve Description
#---------                               ----------------------------
        DEPT.M                                    : 1   DEPTH
          GX.G                                    : Incl2_Inclin_accel_X_CLC
          GY.G                                    : Incl2_Inclin_accel_Y_CLC
          GZ.G                                    : Incl2_Inclin_accel_Z_CLC
          HX.mT                                   : Incl2_Inclin_magnit_X_CLC
          HY.mT                                   : Incl2_Inclin_magnit_Y_CLC
          HZ.mT                                   : Incl2_Inclin_magnit_Z_CLC
~Parameter Information Section
#MNEM.UNIT              Value                              Description
#---------  ----------------------------------------   -----------------------------------
~O Прочие данные
#----------------------------
~A   DEPT         AX         AY         AZ         HX         HY         HZ
# ...
       6803     150.9     123.2     981.1      81.3     -52.0    1103.3
       6804     149.2     121.9     981.0      81.7     -52.1    1103.0
       6805     150.0     122.5     980.5      81.2     -51.8    1103.3
       6806     149.9     122.1     981.3      81.1     -51.8    1103.0
       6807     150.1     122.9     980.9      81.3     -52.7    1103.2
       6808     149.8     122.7     981.0      81.3     -52.5    1103.3
       6809     150.2     122.7     980.8      81.5     -52.0    1103.1
       6810     149.6     122.5     980.9      81.4     -52.7    1103.4
       6811     150.1     122.3     981.3      80.9     -52.2    1102.8
       6812     150.1     122.0     980.8      81.8     -52.4    1102.5
       6813     150.0     123.0     980.8      81.5     -52.7    1103.1
       6814     149.7     122.4     980.3      81.6     -51.9    1102.9
       6815     150.0     122.0     981.2      81.6     -51.9    1103.0
       6816     150.1     122.4     980.9      81.3     -52.0    1103.6
       6817     149.6     122.8     980.5      81.3     -51.8    1102.9
       6818     149.8     122.3     981.2      81.7     -51.8    1102.8
       6819     149.8     122.9     980.7      81.9     -52.1    1103.1
       6820     149.7     122.3     980.8      81.5     -52.1    1102.7
       6821     150.2     123.1     981.1      81.4     -51.8    1103.2
       6822     149.8     122.3     980.4      81.5     -52.0    1103.1
       6823     149.9     121.9     980.8      81.4     -51.8    1103.4
       6824     149.5     122.5     980.8      81.4     -52.1    1102.9
       6825     149.7     122.6     980.6      81.4     -52.1    1102.7
       6826     149.4     122.8     981.0      81.4     -51.8    1102.3
       6827     149.8     122.4     980.7      81.5     -52.2    1103.2
       6828     149.9     122.3     981.2      81.8     -52.3    1102.7
       6829     149.9     122.4     981.2      81.4     -51.9    1103.2
       6830     150.0     122.8     980.6      82.0     -52.0    1103.1
       6831     150.1     122.2     980.6      81.4     -51.9    1102.9
       6832     149.8     122.5     980.9      81.7     -52.1    1102.7
       6833     149.7     122.3     981.0      81.5     -52.1    1103.0
       6834     150.1     122.4     981.0      81.3     -52.0    1102.8
       6835     150.0     122.8     980.9      81.6     -51.4    1102.6
       6836     149.8     122.1     980.9      81.3     -51.8    1102.2
       6837     150.0     122.6     981.1      81.5     -51.7    1102.9
       6838     150.2     122.9     980.7      81.5     -52.2    1102.6
       6839     150.1     122.6     980.9      81.6     -52.2    1102.7
       6840     150.5     122.4     980.8      81.5     -51.9    1102.7
       6841     150.5     122.9     980.5      81.6     -52.2    1103.1
       6842     150.1     122.1     980.8      81.6     -51.9    1102.6
       6843     150.0     122.3     980.5      81.7     -51.9    1103.0
       6844     150.0     122.2     981.1      81.6     -51.8    1102.7
       6845     149.4     122.0     980.7      81.3     -52.1    1102.7
       6846     150.3     122.8     981.1      81.6     -52.0    1102.6
       6847     150.3     122.3     980.5      81.8     -51.8    1102.7
       6848     150.0     123.1     980.5      81.4     -52.1    1102.6
       6849     150.0     122.5     980.8      82.0     -52.2    1102.8
       6850     149.9     122.0     980.2      81.3     -51.9    1102.9
       6851     150.2     122.9     980.9      81.7     -52.0    1102.4
       6852     150.1     122.4     981.1      81.4     -51.9    1102.5
       6853     149.8     122.0     980.8      81.1     -52.5    1103.0
       6854     150.2     122.7     981.4      81.4     -51.8    1103.7
       6855     150.3     122.7     980.8      81.4     -51.6    1103.5
       6856     149.9     122.0     980.9      81.7     -52.0    1102.7
       6857     149.7     122.5     980.6      81.8     -52.3    1103.6
       6858     149.6     122.3     980.5      81.5     -52.1    1102.7
       6859     150.2     122.3     981.4      81.9     -52.1    1102.4
       6860     149.7     122.6     980.7      81.4     -52.2    1102.5
       6861     149.6     122.5     980.8      81.3     -52.2    1103.1
       6862     150.3     123.0     981.1      81.7     -51.8    1103.3
       6863     149.9     122.4     981.5      82.0     -52.3    1103.2
       6864     150.4     122.7     979.9      82.0     -52.2    1103.7
       6865     150.4     122.6     981.2      81.9     -51.9    1103.4
       6866     149.4     122.1     981.1      81.7     -52.0    1103.1
       6867     149.6     121.9     980.3      81.6     -51.8    1104.0
       6868     150.3     122.4     981.2      82.1     -51.7    1103.6
       6869     150.2     122.8     980.7      81.7     -51.8    1103.4
       6870     150.3     122.3     980.7      81.6     -51.5    1103.4
       6871     150.4     122.3     981.4      81.5     -52.1    1103.5
       6872     150.0     123.1     981.4      81.5     -51.7    1103.3
       6873     149.9     122.3     980.8      81.6     -52.0    1103.2
       6874     150.1     122.8     981.2      81.2     -52.1    1103.6
       6875     149.9     122.6     980.6      81.5     -51.9    1103.3
       6876     150.2     123.1     980.7      81.2     -51.9    1103.6
       6877     150.1     123.1     981.4      81.4     -51.8    1102.8
       6878     150.1     122.3     981.3      81.6     -51.8    1103.3
       6879     149.9     122.7     980.8      82.0     -52.3    1103.4
       6880     150.1     122.7     980.8      81.9     -51.6    1103.4
       6881     149.7     122.3     981.3      81.8     -52.1    1103.3
       6882     149.9     122.7     981.0      81.3     -51.8    1103.6
       6883     149.3     122.0     981.0      81.8     -52.2    1103.1
       6884     150.3     122.8     980.8      81.9     -52.0    1103.4
       6885     150.0     122.2     980.3      81.7     -51.7    1103.5
       6886     149.7     122.8     981.3      81.4     -51.7    1103.7
       6887     150.1     122.6     980.5      81.8     -51.6    1103.4
       6888     150.1     122.4     981.0      81.7     -52.4    1102.9
       6889     149.6     122.6     980.4      81.7     -52.1    1103.2
       6890     149.9     122.8     980.4      82.1     -52.8    1103.3
       6891     149.9     122.3     980.5      81.4     -52.3    1102.7
       6892     150.2     122.5     981.1      81.6     -51.7    1103.4
       6893     150.3     123.2     980.9      81.8     -52.1    1103.7
       6894     150.4     122.5     981.1      81.6     -52.5    1103.4
       6895     150.2     122.6     980.2      81.7     -52.0    1103.1
       6896     149.8     123.0     981.0      82.1     -51.9    1103.2
       6897     150.0     122.8     980.4      81.9     -52.0    1103.4
       6898     149.7     122.9     981.2      81.8     -52.0    1103.4
       6899     150.2     123.3     980.7      81.9     -52.1    1103.3
       6900     149.5     122.5     981.1      81.5     -52.0    1103.3
       6901     149.8     122.7     981.2      81.3     -52.6    1103.1
       6902     150.0     122.6     980.6      81.2     -52.3    1103.6
       6903     150.0     122.1     980.5      81.5     -52.0    1102.9
       6904     149.9     122.9     980.8      81.5     -51.8    1102.9
       6905     149.9     122.2     980.7      81.3     -52.0    1103.4
       6906     150.1     122.3     980.9      81.5     -51.9    1103.3
       6907     149.6     122.1     980.8      81.4     -51.8    1103.2
       6908     150.0     122.6     981.1      81.4     -52.1    1103.3
       6909     150.1     122.7     980.8      81.5     -52.1    1103.2
       6910     150.2     122.5     981.1      81.5     -52.4    1103.2
       6911     150.0     122.4     981.0      81.7     -52.1    1102.9
       6912     149.8     122.2     980.2      81.0     -51.7    1103.0
       6913     149.9     122.7     980.6      81.5     -52.3    1104.0
       6914     150.1     122.4     980.3      82.0     -51.9    1103.5
