~Version Information
        VERS.      2.0                            : CWLS log ASCII Standard -VERSION 2.0
        WRAP.      NO                             : One line per depth step
~Well Information Block
#MNEM.UNIT                DATA                         DESCRIPTION
#----- -----           ----------           -----------------------
        STRT.M     6579                           : Глубина первой строки данных
        STOP.M     9298                           : Глубина последней строки данных
        STEP.M     1                              : Шаг глубины
        NULL.      -999.25                        : NULL VALUE
        COMP.                                     : Имя компании
        WELL.                                     : Название скважины
         FLD.                                     : Месторождение
         LOC.                                     : LOCATION
        PROV.                                     : PROVINCE
        SRVC.      АМК "Горизонт"                 : SERVICE COMPANY
         LIC.                                     : ERCB LICENCE NUMBER
        DATE.                                     : LOG DATE
         UWI.                                     : UNIQUE WELL ID
~Curve Information Block
#MNEM.UNIT                                    Curve Description
#---------                               ----------------------------
        DEPT.M                                    : 1   DEPTH
          GX.G                                    : Incl2_Inclin_accel_X_CLC
          GY.G                                    : Incl2_Inclin_accel_Y_CLC
          GZ.G                                    : Incl2_Inclin_accel_Z_CLC
          HX.mT                                   : Incl2_Inclin_magnit_X_CLC
          HY.mT                                   : Incl2_Inclin_magnit_Y_CLC
          HZ.mT                                   : Incl2_Inclin_magnit_Z_CLC
~Parameter Information Section
#MNEM.UNIT              Value                              Description
#---------  ----------------------------------------   -----------------------------------
~O Прочие данные
#----------------------------
~A   DEPT         AX         AY         AZ         HX         HY         HZ
# ...
       7475     159.9     108.9     981.0      68.1     -55.5    1104.9
       7476     160.2     108.8     980.7      68.2     -55.1    1104.9
       7477     159.8     108.9     980.9      68.7     -55.2    1104.8
       7478     160.3     108.8     980.8      68.5     -55.0    1105.2
       7479     160.4     108.6     980.9      68.6     -55.4    1104.6
       7480     160.1     108.6     980.8      68.6     -55.6    1104.0
       7481     160.2     108.4     981.1      68.5     -55.4    1104.8
       7482     160.3     108.3     980.8      68.3     -55.2    1104.7
       7483     160.9     108.8     980.3      68.1     -55.3    1105.2
       7484     160.2     109.2     980.9      68.3     -55.5    1104.6
       7485     160.4     109.0     981.0      68.0     -55.4    1104.7
       7486     160.3     108.4     980.9      68.3     -55.5    1103.9
       7487     160.0     108.7     981.0      68.3     -55.3    1104.8
       7488     160.0     108.6     980.7      68.2     -55.6    1103.9
       7489     160.7     109.7     980.6      68.3     -55.7    1105.0
       7490     160.0     109.1     981.0      68.1     -55.2    1103.7
       7491     160.0     108.5     980.8      68.4     -55.5    1103.7
       7492     160.2     108.9     980.8      68.2     -55.6    1104.0
       7493     160.1     108.8     981.0      68.2     -55.5    1104.1
       7494     160.1     108.0     980.6      68.0     -55.2    1104.0
       7495     159.9     109.1     981.0      68.2     -55.0    1104.2
       7496     160.8     109.3     980.6      68.0     -55.4    1103.7
       7497     160.2     108.8     980.7      68.1     -55.6    1104.2
       7498     160.3     109.1     980.8      68.2     -54.9    1104.0
       7499     159.9     108.1     981.1      68.1     -55.6    1104.0
       7500     160.4     108.8     981.1      68.8     -55.5    1104.0
       7501     160.5     108.5     980.6      68.3     -55.6    1104.1
       7502     160.0     108.9     981.1      68.2     -55.3    1103.9
       7503     160.4     108.5     980.9      68.4     -55.4    1104.1
       7504     160.2     108.8     981.4      68.1     -55.7    1104.5
       7505     159.7     109.2     964.3      67.9     -55.6    1104.2
       7506     159.8     108.1     981.8      68.0     -55.7    1104.3
       7507     160.2     108.7     977.4      68.5     -55.9    1104.5
       7508     159.9     109.2     982.7      68.1     -55.7    1103.9
       7509     159.9     108.7     985.7      68.3     -55.1    1104.4
       7510     159.6     109.8     983.4      68.5     -54.9    1103.8
       7511     162.5     115.9     981.3      68.6     -54.9    1104.3
       7512     159.9     111.3     948.6      69.1     -54.5    1104.5
       7513     159.3     110.9     966.4      68.8     -54.8    1104.4
       7514     158.5     110.5     984.7      68.4     -54.3    1104.2
       7515     156.8     110.6     976.8      68.4     -54.1    1104.5
       7516     157.9     111.9     990.7      68.6     -53.3    1104.5
       7517     157.6     111.2     980.8      69.1     -53.6    1104.2
       7518     156.0     113.1     984.2      69.3     -53.5    1104.1
       7519     155.6     114.0     993.8      69.1     -52.8    1104.5
       7520     157.5     113.3     978.3      68.8     -53.0    1104.6
       7521     157.8     113.4     975.1      69.1     -52.7    1104.3
       7522     156.9     114.5     982.4      69.0     -52.2    1104.0
       7523     155.9     114.6    1007.8      68.2     -52.1    1104.4
       7524     157.5     114.6    1009.3      69.1     -52.5    1104.6
       7525     154.6     114.2     993.5      69.2     -51.7    1104.6
       7526     154.0     114.7     990.1      69.4     -51.5    1104.5
       7527     154.3     115.4     983.8      69.7     -51.5    1104.6
       7528     155.4     115.4     979.0      69.1     -51.4    1105.0
       7529     154.6     115.0     982.2      69.2     -51.6    1104.5
       7530     154.8     116.6     984.3      68.9     -51.3    1104.6
       7531     153.6     116.4     980.8      69.2     -50.9    1104.3
       7532     153.0     120.3     960.5      70.0     -50.0    1104.6
       7533     153.0     118.3     966.0      70.4     -49.6    1104.4
       7534     151.7     119.5     971.3      69.4     -49.2    1104.9
       7535     151.3     119.4     971.8      69.4     -49.4    1105.3
       7536     151.7     119.2     980.3      68.5     -48.4    1106.0
       7537     150.8     119.7     975.3      69.4     -48.8    1104.4
       7538     151.4     121.2     984.1      69.7     -48.5    1104.7
       7539     150.2     120.6     983.9      69.7     -47.9    1104.6
       7540     150.7     121.1     978.2      70.1     -48.5    1104.6
       7541     151.2     120.9     984.5      69.5     -48.7    1104.4
       7542     150.7     120.2     980.7      69.4     -48.6    1104.7
       7543     151.0     119.8     978.0      69.6     -48.4    1105.0
       7544     150.2     120.8     980.1      69.5     -47.9    1105.2
       7545     150.2     120.3     977.7      68.4     -49.0    1104.8
       7546     150.2     120.6     984.7      69.0     -48.5    1104.8
       7547     150.6     120.2     993.0      69.0     -48.4    1104.9
       7548     150.6     121.8     993.3      68.6     -48.3    1104.0
       7549     150.5     121.1    1006.3      68.8     -48.8    1104.4
       7550     149.9     119.6     990.3      68.6     -48.8    1104.7
       7551     149.9     121.3     997.1      68.3     -48.3    1105.3
       7552     148.9     120.6     985.2      68.6     -48.2    1104.8
       7553     149.8     120.7     980.3      67.7     -48.5    1105.3
       7554     150.0     120.4     992.0      67.9     -48.4    1103.8
       7555     150.6     120.9     995.3      67.9     -48.1    1104.2
       7556     149.9     120.7     989.4      67.4     -47.9    1105.2
       7557     148.8     119.4     988.8      66.9     -48.9    1105.0
       7558     148.7     120.2     986.3      67.1     -48.5    1105.8
       7559     151.8     120.3     990.1      67.0     -48.7    1104.2
       7560     151.3     118.3     979.0      66.8     -49.1    1105.4
       7561     151.7     117.7     974.2      66.9     -48.7    1104.5
       7562     151.2     121.3     988.7      66.6     -48.6    1103.9
       7563     150.8     116.8     978.1      66.9     -48.8    1104.6
       7564     154.4     120.2     984.5      66.1     -48.7    1105.3
       7565     151.8     117.5     984.6      65.9     -51.7    1103.8
       7566     157.1     116.1     987.6      65.6     -49.6    1104.3
       7567     150.9     117.8     987.1      65.7     -48.8    1104.0
       7568     150.2     119.1     982.6      66.1     -48.6    1104.1
       7569     151.8     118.5     983.6      66.2     -48.4    1104.4
       7570     152.4     119.6     980.0      66.1     -48.7    1104.4
       7571     148.2     122.3     984.2      66.8     -47.7    1104.1
       7572     150.1     120.4     990.5      66.1     -47.0    1104.6
       7573     150.4     121.2     983.7      66.1     -46.9    1104.4
       7574     151.0     121.4     984.8      66.5     -46.3    1104.6
       7575     150.3     121.7     986.7      66.9     -46.3    1104.9
       7576     151.1     121.7     981.8      66.2     -46.3    1104.1
       7577     149.1     121.6     986.8      66.8     -46.1    1104.7
       7578     149.9     122.9     987.8      66.6     -46.0    1104.6
       7579     150.2     122.4     987.5      67.2     -45.3    1104.8
       7580     147.4     126.1     983.3      66.8     -45.6    1104.5
       7581     148.9     122.2     988.3      67.4     -45.3    1104.5
       7582     148.2     124.6     993.4      67.7     -44.7    1104.2
       7583     147.5     126.0     985.2      68.5     -43.5    1104.4
       7584     146.9     128.1     978.9      68.2     -43.2    1104.4
       7585     147.3     127.3     983.4      68.3     -42.5    1104.5
       7586     144.8     129.0     971.9      69.0     -41.7    1104.8
