~Version Information
        VERS.      2.0                            : CWLS log ASCII Standard -VERSION 2.0
        WRAP.      NO                             : One line per depth step
~Well Information Block
#MNEM.UNIT                DATA                         DESCRIPTION
#----- -----           ----------           -----------------------
        STRT.M     6579                           : Глубина первой строки данных
        STOP.M     9298                           : Глубина последней строки данных
        STEP.M     1                              : Шаг глубины
        NULL.      -999.25                        : NULL VALUE
        COMP.                                     : Имя компании
        WELL.                                     : Название скважины
         FLD.                                     : Месторождение
         LOC.                                     : LOCATION
        PROV.                                     : PROVINCE
        SRVC.      АМК "Горизонт"                 : SERVICE COMPANY
         LIC.                                     : ERCB LICENCE NUMBER
        DATE.                                     : LOG DATE
         UWI.                                     : UNIQUE WELL ID
~Curve Information Block
#MNEM.UNIT                                    Curve Description
#---------                               ----------------------------
        DEPT.M                                    : 1   DEPTH
          GX.G                                    : Incl2_Inclin_accel_X_CLC
          GY.G                                    : Incl2_Inclin_accel_Y_CLC
          GZ.G                                    : Incl2_Inclin_accel_Z_CLC
          HX.mT                                   : Incl2_Inclin_magnit_X_CLC
          HY.mT                                   : Incl2_Inclin_magnit_Y_CLC
          HZ.mT                                   : Incl2_Inclin_magnit_Z_CLC
~Parameter Information Section
#MNEM.UNIT              Value                              Description
#---------  ----------------------------------------   -----------------------------------
~O Прочие данные
#----------------------------
~A   DEPT         AX         AY         AZ         HX         HY         HZ
# ...
       7139     151.9     117.6     991.3      79.6     -54.4    1103.2
       7140     153.8     117.3     987.7      79.2     -55.2    1103.1
       7141     151.9     118.0     977.5      78.7     -55.2    1102.9
       7142     154.7     115.2     991.1      78.4     -56.1    1103.2
       7143     155.3     113.9     999.6      78.7     -57.0    1104.1
       7144     154.6     113.4     978.8      77.3     -57.5    1102.9
       7145     157.0     112.4     982.9      76.7     -58.4    1102.6
       7146     157.6     110.9     970.0      76.2     -59.2    1103.3
       7147     158.6     111.5     982.0      76.1     -60.0    1102.7
       7148     158.8     106.0     986.4      75.6     -60.6    1102.9
       7149     159.7     107.0     970.4      75.6     -61.3    1103.1
       7150     161.3     103.2     987.4      74.3     -62.4    1103.1
       7151     157.7     105.6     981.3      73.8     -62.4    1102.5
       7152     161.6     101.4     987.1      72.9     -63.0    1103.8
       7153     162.6     101.6     988.3      73.5     -62.4    1098.0
       7154     165.0     102.8     981.1      73.1     -63.3    1103.6
       7155     159.9     105.0     978.8      73.2     -63.1    1102.8
       7156     163.1     103.6     988.3      72.5     -63.4    1102.8
       7157     166.6     104.1     984.1      72.7     -63.1    1102.9
       7158     162.6     103.9     989.1      73.2     -62.7    1103.1
       7159     163.0     105.9     987.2      73.0     -62.3    1102.4
       7160     162.8     107.1     990.9      72.6     -62.3    1103.0
       7161     161.3     103.4     989.0      73.3     -62.4    1103.1
       7162     160.4     104.6     984.3      73.5     -62.0    1103.2
       7163     164.6     107.7     975.8      72.6     -61.9    1102.8
       7164     162.8     104.0     980.1      72.5     -61.9    1103.2
       7165     159.3      97.5     979.6      72.4     -63.2    1103.1
       7166     163.3     101.4     978.5      71.6     -63.1    1103.0
       7167     164.1     100.9     977.3      72.1     -63.4    1102.9
       7168     163.5     100.7     982.9      71.3     -63.7    1102.2
       7169     163.1     102.1     977.6      72.1     -62.4    1103.0
       7170     162.5     103.5     973.5      71.8     -62.6    1102.9
       7171     162.6     102.0     967.1      72.2     -62.6    1102.9
       7172     165.2     106.4     967.2      72.6     -61.6    1103.1
       7173     163.2     106.4     971.6      72.8     -61.3    1103.0
       7174     162.5     108.5     979.8      72.8     -61.0    1103.0
       7175     162.7     105.6     979.3      72.6     -60.8    1103.4
       7176     161.3     105.5     978.4      73.3     -60.4    1102.9
       7177     159.0     106.8     986.5      73.7     -59.7    1103.0
       7178     161.6     107.5     980.7      73.8     -60.0    1103.1
       7179     160.5     107.2     988.4      74.1     -59.5    1103.0
       7180     161.0     107.3     986.2      73.8     -59.1    1102.9
       7181     161.5     108.0     988.4      73.9     -58.2    1103.7
       7182     160.3     108.1     976.1      74.2     -58.7    1103.1
       7183     159.1     110.5     976.2      74.9     -57.9    1102.8
       7184     158.7     111.1     997.3      75.0     -57.6    1103.2
       7185     159.0     111.3     995.0      74.7     -57.7    1103.1
       7186     158.3     110.9    1002.3      75.2     -56.6    1103.6
       7187     157.9     110.8     980.6      75.4     -57.0    1103.0
       7188     157.7     112.4     984.7      75.6     -56.5    1103.0
       7189     157.4     112.1    1001.9      76.4     -56.9    1102.8
       7190     154.3     113.6     974.0      76.1     -56.9    1103.3
       7191     157.6     113.9     980.1      76.1     -55.6    1103.3
       7192     155.7     114.9     983.7      77.1     -55.2    1102.9
       7193     155.1     118.7     966.3      77.5     -54.4    1102.7
       7194     154.2     119.0     967.5      77.2     -53.9    1103.3
       7195     154.5     117.6     969.4      77.6     -54.1    1102.7
       7196     154.9     116.6     956.7      77.5     -54.4    1104.8
       7197     156.4     116.2     976.7      78.1     -54.2    1103.2
       7198     155.5     116.0     963.5      77.5     -54.4    1103.1
       7199     156.2     116.7     983.1      77.2     -54.6    1103.2
       7200     155.4     115.5     980.1      76.7     -55.0    1103.2
       7201     157.1     114.1     975.8      75.8     -55.3    1103.0
       7202     157.6     113.5     978.2      76.2     -55.3    1102.9
       7203     157.0     112.7     975.4      76.4     -56.0    1103.1
       7204     158.9     114.9     965.9      76.4     -55.3    1103.3
       7205     158.1     114.7     964.0      76.1     -55.2    1103.7
       7206     158.2     111.3     985.2      76.3     -55.7    1103.1
       7207     158.1     113.6     975.3      75.7     -55.9    1103.0
       7208     157.7     113.3     991.2      75.9     -55.8    1103.4
       7209     158.5     112.5     986.2      76.1     -55.8    1103.3
       7210     158.9     111.0     991.4      75.7     -56.5    1102.6
       7211     158.5     112.2     962.8      75.2     -56.7    1102.8
       7212     158.7     112.5     983.7      75.5     -56.6    1103.3
       7213     161.6     111.2     983.4      75.4     -56.5    1103.1
       7214     158.5     111.9     980.0      75.3     -56.3    1102.4
       7215     161.1     110.6     990.1      75.6     -56.9    1103.1
       7216     159.9     111.3     993.3      75.4     -56.5    1102.9
       7217     162.3     109.9     966.6      75.2     -56.9    1103.2
       7218     161.1     112.4     977.0      75.5     -56.4    1102.9
       7219     160.5     111.0     986.5      75.2     -56.9    1102.9
       7220     157.8     107.7     969.0      75.3     -57.3    1103.3
       7221     163.4     109.9     950.7      75.0     -57.8    1103.5
       7222     160.5     108.7     975.9      74.6     -58.1    1103.5
       7223     160.3     108.7     977.4      74.7     -57.6    1103.1
       7224     159.9     112.8     976.1      73.4     -57.4    1104.6
       7225     160.6     110.3     987.6      74.7     -57.3    1103.1
       7226     159.1     109.1     967.0      74.5     -57.2    1103.1
       7227     159.5     109.8     962.9      74.7     -57.4    1103.4
       7228     158.1     111.6     980.4      75.6     -56.2    1103.2
       7229     158.8     112.6     970.7      75.2     -55.9    1102.7
       7230     159.0     112.6     981.1      75.5     -55.8    1103.0
       7231     157.0     114.6     992.1      75.8     -55.4    1104.2
       7232     155.5     114.0     966.7      76.0     -54.5    1102.8
       7233     157.1     114.1     983.1      76.4     -53.8    1103.0
       7234     155.4     116.9     975.9      76.7     -53.8    1103.0
       7235     155.1     116.9     973.7      76.9     -52.8    1103.2
       7236     154.6     119.5     979.4      77.6     -52.3    1103.0
       7237     153.7     119.2     986.2      77.4     -52.3    1103.2
       7238     153.1     119.7     980.0      77.4     -52.3    1104.0
       7239     151.7     115.9     977.2      77.8     -52.1    1104.0
       7240     153.1     119.1     996.1      77.6     -51.6    1103.4
       7241     153.6     120.7     981.1      77.6     -52.2    1102.9
       7242     153.1     119.5     980.5      77.3     -51.4    1103.5
       7243     153.0     119.3     980.7      77.7     -51.6    1102.7
       7244     153.2     120.0     980.4      77.7     -51.7    1103.0
       7245     153.3     119.9     980.2      77.4     -52.2    1103.1
       7246     153.5     119.9     980.7      77.9     -51.5    1103.0
       7247     153.0     119.8     980.6      77.2     -51.9    1103.1
       7248     153.8     119.7     980.1      77.4     -52.5    1103.3
       7249     153.0     119.7     980.5      77.6     -51.4    1103.3
       7250     153.1     119.3     980.9      77.4     -52.1    1103.2
