~Version Information
        VERS.      2.0                            : CWLS log ASCII Standard -VERSION 2.0
        WRAP.      NO                             : One line per depth step
~Well Information Block
#MNEM.UNIT                DATA                         DESCRIPTION
#----- -----           ----------           -----------------------
        STRT.M     6579                           : Глубина первой строки данных
        STOP.M     9298                           : Глубина последней строки данных
        STEP.M     1                              : Шаг глубины
        NULL.      -999.25                        : NULL VALUE
        COMP.                                     : Имя компании
        WELL.                                     : Название скважины
         FLD.                                     : Месторождение
         LOC.                                     : LOCATION
        PROV.                                     : PROVINCE
        SRVC.      АМК "Горизонт"                 : SERVICE COMPANY
         LIC.                                     : ERCB LICENCE NUMBER
        DATE.                                     : LOG DATE
         UWI.                                     : UNIQUE WELL ID
~Curve Information Block
#MNEM.UNIT                                    Curve Description
#---------                               ----------------------------
        DEPT.M                                    : 1   DEPTH
          GX.G                                    : Incl2_Inclin_accel_X_CLC
          GY.G                                    : Incl2_Inclin_accel_Y_CLC
          GZ.G                                    : Incl2_Inclin_accel_Z_CLC
          HX.mT                                   : Incl2_Inclin_magnit_X_CLC
          HY.mT                                   : Incl2_Inclin_magnit_Y_CLC
          HZ.mT                                   : Incl2_Inclin_magnit_Z_CLC
~Parameter Information Section
#MNEM.UNIT              Value                              Description
#---------  ----------------------------------------   -----------------------------------
~O Прочие данные
#----------------------------
~A   DEPT         AX         AY         AZ         HX         HY         HZ
# ...
       8483     181.9     291.5     945.2     214.1     123.9    1077.6
       8484     185.7     289.0     940.3     215.9     120.9    1077.9
       8485     190.7     285.7     939.5     217.5     116.8    1078.0
       8486     195.3     283.6     936.3     218.6     113.7    1077.9
       8487     197.8     280.1     937.8     220.1     110.0    1078.0
       8488     200.5     278.6     935.8     221.3     108.6    1078.6
       8489     203.8     276.1     939.5     222.8     105.6    1078.0
       8490     206.8     274.1     932.8     223.5     103.0    1078.2
       8491     209.6     272.1     938.0     224.2     101.0    1078.5
       8492     211.2     270.8     942.9     224.8      98.5    1078.5
       8493     213.6     269.0     944.9     225.5      96.8    1078.3
       8494     217.8     265.0     938.5     227.0      93.1    1078.5
       8495     220.3     262.6     942.7     228.0      90.3    1078.3
       8496     222.4     260.0     937.3     228.7      87.4    1078.0
       8497     224.1     258.1     946.8     229.0      86.1    1078.5
       8498     225.2     258.0     930.5     229.1      85.8    1078.6
       8499     226.2     256.9     944.1     230.0      83.2    1078.4
       8500     225.3     256.6     932.4     229.6      84.4    1078.7
       8501     225.7     257.9     939.2     229.7      85.0    1078.7
       8502     225.8     258.4     939.5     229.5      85.2    1078.4
       8503     222.6     259.7    1004.5     229.9      85.5    1078.8
       8504     225.1     258.5     939.3     229.4      85.7    1078.8
       8505     224.2     258.0     939.8     229.1      85.8    1078.6
       8506     224.4     258.8     939.2     229.1      85.6    1078.6
       8507     224.5     257.9     939.0     229.1      86.0    1078.6
       8508     225.0     258.4     939.4     229.1      85.7    1078.9
       8509     224.6     258.2     939.2     229.6      85.8    1078.6
       8510     224.2     258.0     939.3     229.5      86.4    1078.8
       8511     224.3     258.0     938.9     229.3      86.2    1078.5
       8512     224.1     258.1     939.4     229.3      85.7    1077.7
       8513     224.8     258.8     939.2     229.0      86.0    1079.0
       8514     223.9     258.8     938.9     229.2      85.6    1077.9
       8515     224.4     258.1     939.4     229.5      86.1    1077.3
       8516     224.1     258.5     939.7     229.2      85.7    1077.7
       8517     224.2     258.1     938.9     229.1      85.8    1078.5
       8518     224.8     258.3     939.6     229.2      86.0    1077.7
       8519     224.6     258.4     939.2     229.2      86.1    1078.0
       8520     224.9     258.8     938.3     228.8      85.5    1078.0
       8521     225.0     258.8     939.0     229.0      85.4    1077.7
       8522     224.6     258.9     938.8     229.2      85.5    1078.0
       8523     224.9     258.6     939.3     229.1      85.9    1078.0
       8524     224.5     258.7     939.2     229.5      86.0    1078.1
       8525     224.3     258.3     939.1     229.2      86.0    1078.2
       8526     224.5     258.0     939.1     229.1      85.5    1078.1
       8527     224.4     258.7     939.2     228.9      85.7    1078.3
       8528     224.5     258.5     939.0     229.2      85.6    1077.4
       8529     224.7     258.4     939.0     229.4      85.7    1078.2
       8530     224.7     258.4     939.1     228.9      86.0    1078.1
       8531     224.4     258.6     939.4     228.9      85.5    1077.8
       8532     224.2     258.1     938.7     229.2      85.9    1077.9
       8533     224.4     258.1     938.8     229.0      85.9    1078.2
       8534     224.2     258.7     938.7     229.1      86.1    1078.0
       8535     224.2     258.4     938.7     228.8      86.1    1077.9
       8536     224.6     258.4     938.9     229.1      85.6    1078.4
       8537     224.9     258.7     939.6     228.9      85.4    1078.0
       8538     224.4     258.2     939.2     229.0      85.8    1078.0
       8539     224.6     258.3     939.5     229.5      85.9    1078.1
       8540     224.2     258.4     938.9     229.2      85.7    1078.0
       8541     224.5     258.4     939.7     229.4      85.7    1077.9
       8542     224.2     257.9     939.0     229.6      86.0    1078.6
       8543     224.7     258.7     938.8     228.8      85.9    1078.5
       8544     224.9     258.7     939.2     229.4      86.0    1078.6
       8545     224.7     258.1     939.5     228.8      85.7    1078.1
       8546     225.1     258.4     938.9     228.8      85.8    1078.6
       8547     224.3     258.6     939.3     229.3      85.6    1078.1
       8548     224.6     258.2     939.5     229.2      85.9    1078.3
       8549     224.6     258.5     939.4     229.0      85.6    1078.2
       8550     224.2     258.7     939.1     229.2      85.7    1078.1
       8551     224.6     258.8     938.8     229.2      85.9    1078.6
       8552     224.2     258.6     938.9     229.1      86.0    1078.5
       8553     224.0     258.6     939.4     228.9      86.0    1078.6
       8554     224.9     257.9     938.9     229.3      85.9    1078.4
       8555     224.5     258.7     939.0     229.2      85.9    1078.4
       8556     224.5     258.2     938.4     229.6      85.8    1078.5
       8557     224.1     258.2     939.4     229.3      86.0    1078.1
       8558     224.2     259.0     956.2     229.4      85.7    1079.0
       8559     224.5     258.1     946.9     229.4      85.5    1078.8
       8560     224.5     257.8     943.2     229.7      85.4    1078.2
       8561     224.9     258.1     953.2     229.2      85.7    1079.1
       8562     224.9     257.4     945.2     229.1      85.4    1078.6
       8563     224.9     258.0     941.3     229.3      85.1    1078.4
       8564     224.6     258.7     937.4     229.3      85.8    1078.5
       8565     224.8     258.8     946.9     229.4      86.4    1078.6
       8566     223.7     259.7     944.7     228.2      86.9    1077.8
       8567     223.5     259.1     940.9     228.9      86.0    1078.8
       8568     222.7     259.2     935.0     228.3      87.0    1078.9
       8569     221.7     260.6     936.3     227.5      88.1    1077.7
       8570     220.8     261.8     950.3     227.5      89.2    1078.2
       8571     221.4     261.4     937.3     227.3      89.0    1078.0
       8572     222.2     261.0     933.1     227.2      88.7    1078.2
       8573     220.5     261.1     935.5     227.2      88.3    1079.3
       8574     220.3     262.1     941.8     226.9      89.4    1077.9
       8575     219.6     261.6     929.9     226.6      90.0    1078.2
       8576     220.7     260.9     927.4     227.2      88.8    1078.4
       8577     221.8     260.6     946.4     227.6      88.5    1077.9
       8578     221.9     259.0     934.7     227.9      86.9    1078.0
       8579     223.0     258.7     933.5     228.1      86.5    1078.5
       8580     225.2     257.4     941.0     228.5      85.0    1078.2
       8581     225.9     255.6     944.6     228.7      83.6    1078.3
       8582     230.0     254.2     931.5     229.1      81.0    1078.3
       8583     230.9     251.6     942.3     230.0      78.9    1078.7
       8584     233.3     249.5     940.2     230.9      76.8    1078.7
       8585     235.7     247.6     944.1     231.1      75.0    1078.1
       8586     238.1     244.2     934.0     232.2      72.3    1078.9
       8587     241.0     241.9     923.2     233.1      69.6    1078.2
       8588     243.3     240.3     946.3     233.7      67.1    1078.4
       8589     244.8     238.7     939.4     233.9      65.7    1078.5
       8590     246.6     236.1     940.6     235.0      63.2    1078.5
       8591     249.5     234.1     943.3     235.1      60.5    1078.5
       8592     251.6     231.4     939.2     236.0      58.6    1078.9
       8593     253.8     228.9     933.8     236.3      56.1    1078.2
       8594     257.2     225.9     933.9     237.7      53.2    1078.7
