~Version Information
        VERS.      2.0                            : CWLS log ASCII Standard -VERSION 2.0
        WRAP.      NO                             : One line per depth step
~Well Information Block
#MNEM.UNIT                DATA                         DESCRIPTION
#----- -----           ----------           -----------------------
        STRT.M     6579                           : Глубина первой строки данных
        STOP.M     9298                           : Глубина последней строки данных
        STEP.M     1                              : Шаг глубины
        NULL.      -999.25                        : NULL VALUE
        COMP.                                     : Имя компании
        WELL.                                     : Название скважины
         FLD.                                     : Месторождение
         LOC.                                     : LOCATION
        PROV.                                     : PROVINCE
        SRVC.      АМК "Горизонт"                 : SERVICE COMPANY
         LIC.                                     : ERCB LICENCE NUMBER
        DATE.                                     : LOG DATE
         UWI.                                     : UNIQUE WELL ID
~Curve Information Block
#MNEM.UNIT                                    Curve Description
#---------                               ----------------------------
        DEPT.M                                    : 1   DEPTH
          GX.G                                    : Incl2_Inclin_accel_X_CLC
          GY.G                                    : Incl2_Inclin_accel_Y_CLC
          GZ.G                                    : Incl2_Inclin_accel_Z_CLC
          HX.mT                                   : Incl2_Inclin_magnit_X_CLC
          HY.mT                                   : Incl2_Inclin_magnit_Y_CLC
          HZ.mT                                   : Incl2_Inclin_magnit_Z_CLC
~Parameter Information Section
#MNEM.UNIT              Value                              Description
#---------  ----------------------------------------   -----------------------------------
~O Прочие данные
#----------------------------
~A   DEPT         AX         AY         AZ         HX         HY         HZ
# ...
       7251     152.9     120.2     980.8      78.3     -51.8    1103.1
       7252     153.3     120.1     980.4      78.0     -51.9    1103.6
       7253     154.0     120.4     980.8      77.8     -51.8    1102.9
       7254     153.7     120.1     980.8      77.2     -51.7    1103.3
       7255     153.4     119.8     980.4      77.8     -51.5    1103.2
       7256     152.9     119.9     980.5      77.5     -51.9    1102.9
       7257     152.9     119.9     980.9      77.6     -52.1    1103.2
       7258     153.4     120.1     980.4      77.5     -51.8    1103.8
       7259     153.2     120.2     980.3      77.7     -51.9    1103.0
       7260     153.3     120.0     980.7      77.6     -52.0    1103.2
       7261     153.1     119.6     980.9      77.2     -52.1    1103.1
       7262     153.0     119.5     980.6      77.2     -52.0    1102.9
       7263     153.7     120.2     980.6      77.9     -52.1    1102.7
       7264     153.2     120.2     980.8      77.7     -51.7    1103.3
       7265     153.1     119.8     980.8      77.9     -52.2    1102.9
       7266     153.4     119.9     980.9      77.7     -51.9    1103.2
       7267     152.7     120.1     980.3      77.6     -51.8    1103.1
       7268     153.4     120.5     981.1      77.6     -51.6    1103.5
       7269     153.0     119.6     980.5      78.3     -51.4    1103.0
       7270     153.5     119.9     981.2      77.8     -52.2    1103.5
       7271     153.5     119.9     980.5      78.0     -52.0    1103.2
       7272     153.6     120.0     980.9      77.3     -51.7    1103.2
       7273     153.9     120.3     981.0      77.7     -51.9    1103.0
       7274     153.0     120.0     980.8      77.7     -51.8    1103.3
       7275     153.3     120.0     980.3      77.6     -52.0    1103.2
       7276     153.4     119.9     980.5      77.8     -51.9    1103.4
       7277     153.6     119.9     981.0      77.6     -51.8    1103.2
       7278     153.4     120.0     980.7      77.6     -52.1    1103.0
       7279     153.3     120.3     980.2      77.8     -51.9    1103.1
       7280     153.3     119.4     980.8      77.6     -51.4    1103.2
       7281     153.1     120.0     980.4      77.5     -51.9    1103.6
       7282     153.6     120.3     980.2      77.8     -51.2    1103.4
       7283     153.2     120.5     980.2      77.4     -51.7    1103.1
       7284     153.5     120.3     980.9      77.7     -51.3    1103.5
       7285     153.1     119.4     980.4      77.5     -52.0    1103.1
       7286     153.5     119.4     980.9      77.5     -52.0    1102.8
       7287     154.0     120.0     980.4      77.8     -51.8    1103.2
       7288     153.3     119.7     981.0      77.5     -51.3    1103.1
       7289     153.2     119.6     980.7      78.2     -51.8    1103.4
       7290     153.0     119.7     981.2      77.6     -51.9    1103.3
       7291     153.0     119.5     980.6      77.8     -51.8    1103.0
       7292     153.5     119.7     981.7      77.9     -52.0    1103.8
       7293     153.5     119.7     981.5      77.4     -51.4    1103.3
       7294     153.3     119.8     980.4      77.7     -51.4    1103.0
       7295     153.4     119.7     981.0      77.6     -51.8    1103.2
       7296     153.6     120.4     980.1      77.8     -51.7    1103.5
       7297     153.1     119.8     980.6      77.8     -51.4    1103.3
       7298     152.8     119.8     980.4      77.6     -51.6    1103.3
       7299     153.1     119.7     981.2      77.2     -51.9    1103.5
       7300     152.8     119.4     980.3      77.4     -51.6    1103.4
       7301     153.3     119.8     980.7      77.5     -52.1    1103.6
       7302     153.2     120.3     981.1      77.5     -52.0    1103.2
       7303     153.5     120.0     980.5      77.7     -52.0    1103.1
       7304     153.2     120.1     980.5      77.6     -51.8    1103.3
       7305     153.2     119.2     980.7      77.4     -51.5    1103.3
       7306     152.8     119.9     980.9      77.2     -52.0    1103.5
       7307     153.0     119.9     981.0      77.7     -51.4    1103.9
       7308     153.0     119.7     980.7      77.7     -52.0    1103.6
       7309     152.3     119.0     981.0      77.5     -51.6    1103.5
       7310     153.7     119.8     980.2      77.5     -51.5    1103.5
       7311     153.5     120.0     980.3      77.2     -51.5    1103.8
       7312     153.2     119.9     980.9      77.1     -51.7    1103.6
       7313     153.5     119.8     981.1      77.2     -51.8    1103.5
       7314     153.7     119.8     980.8      77.2     -51.4    1103.3
       7315     152.1     121.0    1001.0      77.5     -51.4    1103.3
       7316     153.4     120.3     994.3      78.0     -51.4    1103.7
       7317     152.6     119.3     990.9      77.9     -51.4    1103.4
       7318     154.0     120.5     990.3      77.8     -51.2    1103.5
       7319     152.8     119.0     974.7      77.6     -51.3    1103.7
       7320     152.2     120.4     981.4      77.5     -51.7    1103.7
       7321     152.5     118.2     977.7      77.8     -51.3    1103.2
       7322     152.9     120.9     983.3      78.1     -51.4    1103.6
       7323     153.9     118.3     974.9      77.5     -51.5    1103.8
       7324     155.3     117.8     970.2      77.2     -52.9    1103.6
       7325     156.4     117.3     966.2      76.7     -53.2    1103.8
       7326     154.5     117.3     964.1      76.9     -53.0    1103.7
       7327     155.3     117.0     965.9      77.6     -52.4    1103.7
       7328     154.3     119.5     988.1      77.8     -52.5    1103.8
       7329     154.6     121.0     982.3      77.8     -52.0    1103.8
       7330     152.7     119.1     985.2      77.2     -51.9    1103.4
       7331     155.3     119.8     983.8      77.4     -52.5    1104.3
       7332     154.6     119.4     974.2      77.8     -51.7    1103.6
       7333     152.3     121.0     979.8      77.9     -51.6    1103.6
       7334     148.8     122.0     982.4      78.6     -51.1    1103.6
       7335     153.3     120.8     970.3      78.4     -51.1    1103.8
       7336     149.5     123.0     990.3      78.9     -50.2    1103.7
       7337     151.7     122.6     977.7      78.4     -50.2    1103.7
       7338     153.5     120.9     996.1      78.9     -50.9    1103.5
       7339     150.9     122.9     982.8      78.8     -50.3    1104.0
       7340     151.2     122.2     984.8      78.7     -49.4    1103.4
       7341     154.4     122.2     994.6      79.4     -49.6    1103.8
       7342     151.9     125.1     990.7      79.1     -49.4    1103.3
       7343     152.4     122.8     982.3      79.3     -49.0    1104.2
       7344     150.7     123.9     981.8      79.7     -49.1    1104.2
       7345     152.1     122.9     983.6      79.0     -49.6    1103.9
       7346     152.2     122.7     983.5      79.0     -50.0    1104.1
       7347     152.3     122.6     985.7      79.2     -50.2    1103.9
       7348     151.8     122.7     980.8      79.1     -49.9    1104.1
       7349     151.8     120.8     974.7      78.9     -49.6    1104.2
       7350     151.7     123.4     983.3      79.2     -49.4    1103.7
       7351     153.1     122.3     982.7      78.9     -49.8    1103.5
       7352     152.1     122.5     985.7      79.0     -49.8    1103.5
       7353     150.9     123.3     981.6      78.7     -49.4    1103.5
       7354     153.0     125.5     955.4      79.3     -48.6    1103.9
       7355     147.5     120.6     965.1      78.6     -49.3    1104.2
       7356     152.4     124.0     979.9      78.7     -49.0    1104.3
       7357     152.8     123.6     989.5      78.3     -49.4    1104.1
       7358     152.1     123.0     978.4      78.8     -49.8    1104.1
       7359     151.7     119.0     977.7      78.8     -49.4    1104.4
       7360     151.3     123.9     973.7      78.5     -48.8    1104.5
       7361     152.7     126.5     969.6      78.7     -48.4    1104.3
       7362     150.0     125.7     983.0      79.0     -48.6    1103.8
