~Version Information
        VERS.      2.0                            : CWLS log ASCII Standard -VERSION 2.0
        WRAP.      NO                             : One line per depth step
~Well Information Block
#MNEM.UNIT                DATA                         DESCRIPTION
#----- -----           ----------           -----------------------
        STRT.M     6579                           : Глубина первой строки данных
        STOP.M     9298                           : Глубина последней строки данных
        STEP.M     1                              : Шаг глубины
        NULL.      -999.25                        : NULL VALUE
        COMP.                                     : Имя компании
        WELL.                                     : Название скважины
         FLD.                                     : Месторождение
         LOC.                                     : LOCATION
        PROV.                                     : PROVINCE
        SRVC.      АМК "Горизонт"                 : SERVICE COMPANY
         LIC.                                     : ERCB LICENCE NUMBER
        DATE.                                     : LOG DATE
         UWI.                                     : UNIQUE WELL ID
~Curve Information Block
#MNEM.UNIT                                    Curve Description
#---------                               ----------------------------
        DEPT.M                                    : 1   DEPTH
          GX.G                                    : Incl2_Inclin_accel_X_CLC
          GY.G                                    : Incl2_Inclin_accel_Y_CLC
          GZ.G                                    : Incl2_Inclin_accel_Z_CLC
          HX.mT                                   : Incl2_Inclin_magnit_X_CLC
          HY.mT                                   : Incl2_Inclin_magnit_Y_CLC
          HZ.mT                                   : Incl2_Inclin_magnit_Z_CLC
~Parameter Information Section
#MNEM.UNIT              Value                              Description
#---------  ----------------------------------------   -----------------------------------
~O Прочие данные
#----------------------------
~A   DEPT         AX         AY         AZ         HX         HY         HZ
# ...
       8819     242.3     247.1     931.3     236.4      76.7    1076.1
       8820     243.6     246.9     939.6     236.6      77.2    1075.4
       8821     242.4     247.7     941.0     236.3      77.7    1075.8
       8822     241.8     248.2     935.0     234.2      78.3    1076.7
       8823     241.2     248.6     945.7     237.2      80.8    1077.5
       8824     241.0     248.7     931.7     236.3      79.2    1074.9
       8825     240.6     249.7     934.0     236.3      79.5    1075.5
       8826     239.6     249.4     933.1     235.9      79.4    1075.2
       8827     240.7     248.7     950.0     236.5      79.0    1075.3
       8828     240.9     249.0     923.0     236.2      79.2    1075.7
       8829     239.7     250.1     939.4     236.4      80.8    1075.8
       8830     238.8     250.8     937.5     235.9      80.7    1075.5
       8831     239.0     250.6     937.7     235.9      80.9    1075.4
       8832     239.1     251.7     937.6     235.8      81.2    1075.3
       8833     239.0     250.2     937.3     235.8      80.5    1074.7
       8834     239.3     251.2     937.0     235.5      81.0    1075.4
       8835     239.0     251.3     937.5     235.8      80.4    1075.2
       8836     238.4     249.9     937.5     236.1      80.4    1075.6
       8837     239.0     250.5     937.3     236.1      81.0    1075.6
       8838     239.9     251.2     937.3     235.8      80.9    1075.3
       8839     239.2     250.7     936.9     235.9      80.9    1075.5
       8840     239.1     251.0     937.6     235.9      80.8    1075.2
       8841     239.3     251.1     937.3     236.2      80.6    1075.5
       8842     238.8     250.1     937.8     236.4      80.9    1076.1
       8843     239.2     251.1     937.1     236.1      80.8    1075.5
       8844     239.4     250.9     937.3     235.9      81.1    1076.0
       8845     239.7     251.1     937.5     235.8      81.2    1075.5
       8846     239.4     251.3     937.1     235.5      80.8    1075.4
       8847     239.0     250.7     938.0     236.3      81.3    1075.2
       8848     239.1     250.6     937.6     235.6      80.6    1075.1
       8849     239.0     250.6     937.8     236.0      80.8    1075.7
       8850     238.9     250.9     937.9     236.5      80.8    1075.6
       8851     239.2     250.8     937.2     236.0      81.1    1075.2
       8852     239.2     250.4     937.9     235.4      80.8    1075.7
       8853     238.7     250.3     937.6     235.5      81.0    1075.4
       8854     238.8     250.7     938.2     235.7      80.8    1075.8
       8855     238.7     250.9     937.5     235.8      80.9    1075.8
       8856     239.6     251.0     937.4     235.8      80.5    1075.1
       8857     239.1     251.0     937.5     235.6      80.7    1074.8
       8858     238.9     250.7     937.9     235.7      80.6    1075.3
       8859     239.2     250.7     937.5     236.0      80.9    1075.5
       8860     239.8     251.4     937.1     235.7      80.8    1075.0
       8861     239.1     250.8     938.0     235.4      81.1    1074.6
       8862     239.4     250.9     937.7     235.6      81.2    1074.8
       8863     239.5     251.0     937.2     236.4      80.8    1074.8
       8864     239.6     251.2     937.4     235.7      80.6    1075.2
       8865     239.3     250.8     936.9     236.0      80.9    1075.0
       8866     239.0     250.8     937.0     235.4      81.0    1074.5
       8867     239.5     250.9     937.4     236.0      80.7    1075.0
       8868     238.6     250.7     937.1     235.2      81.2    1074.9
       8869     238.8     250.8     937.5     235.4      80.8    1074.9
       8870     239.5     251.0     938.1     235.4      80.9    1075.0
       8871     239.1     250.5     937.2     235.7      80.9    1074.7
       8872     239.0     250.9     937.6     235.9      81.0    1075.1
       8873     239.5     251.5     937.6     235.3      80.7    1075.3
       8874     240.0     251.3     937.6     236.0      81.1    1075.1
       8875     239.1     251.0     937.8     235.9      80.7    1075.0
       8876     239.3     250.6     937.4     236.1      80.8    1075.4
       8877     239.3     250.9     937.7     235.9      81.0    1075.5
       8878     238.9     250.8     937.1     236.0      80.7    1074.9
       8879     238.6     250.2     937.4     235.9      80.7    1075.2
       8880     239.5     251.1     937.4     235.4      81.0    1075.8
       8881     239.4     251.2     937.3     235.8      81.4    1075.0
       8882     239.7     251.6     937.2     235.8      81.0    1075.5
       8883     238.9     250.5     937.6     236.0      81.2    1075.1
       8884     239.8     251.3     937.4     235.7      80.7    1075.2
       8885     239.0     251.1     937.3     235.9      80.9    1075.1
       8886     239.3     250.9     937.0     235.6      81.1    1075.3
       8887     239.0     251.0     937.0     235.8      81.6    1075.4
       8888     239.5     251.2     937.1     235.6      81.0    1075.2
       8889     238.8     250.6     937.2     235.7      80.9    1075.2
       8890     239.1     250.1     937.4     236.2      80.9    1075.3
       8891     239.3     250.7     937.5     236.0      80.9    1075.2
       8892     239.8     250.2     920.9     236.0      81.0    1075.6
       8893     238.5     251.3     940.9     236.0      81.5    1075.6
       8894     238.3     252.3     930.1     235.7      82.4    1075.2
       8895     238.2     252.5     923.9     235.8      82.5    1075.1
       8896     237.4     252.7     934.7     235.7      83.0    1075.3
       8897     237.2     253.5     939.9     235.7      83.6    1075.4
       8898     236.3     253.9     929.8     235.7      84.3    1075.3
       8899     235.0     254.8     932.9     235.7      85.6    1075.9
       8900     234.1     255.7     935.8     235.2      86.6    1075.0
       8901     232.1     258.2     949.8     234.4      89.0    1075.3
       8902     231.1     259.3     933.6     234.3      90.4    1075.1
       8903     230.9     259.6     936.7     234.4      90.7    1075.5
       8904     231.1     259.5     934.1     234.1      91.0    1075.0
       8905     230.9     261.0     939.3     234.4      91.9    1074.9
       8906     229.9     261.1     944.3     234.5      92.9    1075.4
       8907     229.4     262.2     939.0     234.6      93.7    1074.9
       8908     228.2     263.4     937.9     235.1      94.4    1074.7
       8909     228.8     263.1     926.5     234.3      95.2    1075.0
       8910     227.9     264.1     936.0     234.8      95.5    1075.2
       8911     226.7     265.8     931.3     233.7      97.2    1075.3
       8912     225.6     266.4     923.6     233.4      98.6    1074.5
       8913     223.1     267.2     943.4     233.5     100.5    1075.0
       8914     224.7     267.2     939.0     233.5     100.2    1075.4
       8915     224.9     267.4     938.2     233.3      99.0    1075.2
       8916     225.6     267.5     928.4     233.3      99.1    1074.9
       8917     223.9     266.9     941.6     233.7      99.2    1075.5
       8918     225.0     267.0     930.3     233.5      99.4    1073.9
       8919     225.0     266.5     932.2     234.1      99.0    1075.0
       8920     223.5     267.9     935.3     233.2     100.7    1075.3
       8921     224.0     268.0     929.5     233.9     100.6    1075.2
       8922     223.7     267.9     941.0     233.6     101.2    1075.3
       8923     223.5     268.6     937.5     233.2     102.3    1074.0
       8924     222.0     269.4     939.8     233.0     102.6    1074.4
       8925     222.5     269.3     940.3     233.3     102.3    1074.3
       8926     223.1     268.1     943.0     233.3     101.7    1074.5
       8927     223.6     267.8     946.9     233.5     101.4    1074.7
       8928     223.4     268.5     933.9     233.0      99.9    1074.6
       8929     222.9     268.1     940.0     233.6     101.5    1074.4
       8930     222.5     267.5     935.5     233.7     101.2    1075.0
