~Version Information
        VERS.      2.0                            : CWLS log ASCII Standard -VERSION 2.0
        WRAP.      NO                             : One line per depth step
~Well Information Block
#MNEM.UNIT                DATA                         DESCRIPTION
#----- -----           ----------           -----------------------
        STRT.M     6579                           : Глубина первой строки данных
        STOP.M     9298                           : Глубина последней строки данных
        STEP.M     1                              : Шаг глубины
        NULL.      -999.25                        : NULL VALUE
        COMP.                                     : Имя компании
        WELL.                                     : Название скважины
         FLD.                                     : Месторождение
         LOC.                                     : LOCATION
        PROV.                                     : PROVINCE
        SRVC.      АМК "Горизонт"                 : SERVICE COMPANY
         LIC.                                     : ERCB LICENCE NUMBER
        DATE.                                     : LOG DATE
         UWI.                                     : UNIQUE WELL ID
~Curve Information Block
#MNEM.UNIT                                    Curve Description
#---------                               ----------------------------
        DEPT.M                                    : 1   DEPTH
          GX.G                                    : Incl2_Inclin_accel_X_CLC
          GY.G                                    : Incl2_Inclin_accel_Y_CLC
          GZ.G                                    : Incl2_Inclin_accel_Z_CLC
          HX.mT                                   : Incl2_Inclin_magnit_X_CLC
          HY.mT                                   : Incl2_Inclin_magnit_Y_CLC
          HZ.mT                                   : Incl2_Inclin_magnit_Z_CLC
~Parameter Information Section
#MNEM.UNIT              Value                              Description
#---------  ----------------------------------------   -----------------------------------
~O Прочие данные
#----------------------------
~A   DEPT         AX         AY         AZ         HX         HY         HZ
       6579     160.5     108.2     981.1      75.5     -59.7    1102.5
       6580     160.6     108.6     981.2      76.0     -59.6    1102.9
       6581     160.1     108.3     980.9      75.7     -59.8    1102.4
       6582     160.2     108.8     981.1      75.5     -59.5    1102.5
       6583     160.1     108.8     980.9      75.9     -59.5    1102.4
       6584     160.5     108.1     981.2      75.9     -58.5    1102.8
       6585     160.6     108.8     981.0      75.9     -59.3    1102.9
       6586     160.6     108.5     981.0      75.7     -59.0    1102.8
       6587     160.4     108.5     981.2      75.7     -58.9    1103.4
       6588     160.5     108.6     981.1      75.5     -59.6    1102.3
       6589     160.2     108.2     980.8      75.7     -59.1    1102.3
       6590     160.5     108.0     980.9      75.4     -59.3    1102.8
       6591     160.3     108.6     980.7      75.9     -59.2    1102.6
       6592     160.7     108.9     981.0      75.6     -58.8    1102.6
       6593     160.5     108.5     981.1      75.6     -59.7    1102.7
       6594     160.4     108.7     980.9      75.5     -59.2    1102.5
       6595     160.7     108.2     980.7      75.2     -59.3    1102.4
       6596     160.8     108.2     981.1      75.5     -59.7    1102.5
       6597     160.4     108.7     981.3      75.8     -59.2    1102.6
       6598     160.0     108.4     981.4      75.6     -58.8    1102.1
       6599     160.4     108.9     981.0      75.6     -59.1    1103.3
       6600     161.7     109.0     980.9      75.7     -59.1    1102.0
       6601     160.3     108.3     980.9      75.7     -59.2    1102.4
       6602     160.5     108.3     981.4      75.7     -59.4    1103.6
       6603     160.1     108.1     980.5      75.9     -59.0    1103.7
       6604     160.8     108.3     981.0      75.5     -59.4    1103.7
       6605     160.2     108.0     981.1      75.8     -58.9    1103.2
       6606     159.8     108.6     981.0      75.6     -59.2    1103.2
       6607     160.3     108.5     980.8      75.9     -59.4    1103.7
       6608     160.2     108.4     981.4      75.6     -59.2    1102.8
       6609     160.6     108.4     981.1      75.7     -59.4    1102.8
       6610     160.7     108.1     980.8      75.8     -59.1    1103.2
       6611     160.4     108.2     981.4      75.6     -59.7    1103.2
       6612     160.2     108.5     981.0      75.6     -59.4    1103.5
       6613     160.1     108.2     981.2      75.6     -59.8    1103.3
       6614     160.8     108.6     981.5      76.0     -59.2    1103.0
       6615     160.6     108.5     981.9      75.7     -59.6    1103.3
       6616     160.7     108.4     980.9      75.8     -59.4    1103.2
       6617     161.0     108.7     981.1      75.4     -59.4    1103.4
       6618     160.8     108.4     980.9      76.2     -59.1    1103.2
       6619     160.3     108.7     980.9      75.2     -59.2    1103.2
       6620     160.2     108.3     980.7      75.6     -59.3    1103.0
       6621     160.6     108.5     981.0      76.0     -59.3    1102.8
       6622     159.9     108.6     981.3      76.2     -59.2    1103.8
       6623     160.0     108.1     981.5      75.8     -59.1    1103.0
       6624     160.1     107.7     980.5      75.8     -59.0    1103.5
       6625     160.6     108.7     981.4      76.0     -59.2    1102.7
       6626     160.3     108.2     981.2      75.3     -59.6    1103.2
       6627     160.3     108.3     980.6      75.9     -59.4    1103.3
       6628     160.4     108.2     981.0      75.8     -59.1    1102.9
       6629     161.0     107.5     959.7      75.8     -59.2    1102.8
       6630     158.1     110.7     980.8      77.1     -58.3    1103.2
       6631     157.0     112.4     980.8      77.4     -57.5    1103.1
       6632     156.5     112.4    1012.5      77.6     -57.9    1102.8
       6633     155.0     114.2     979.1      77.9     -56.9    1103.0
       6634     156.4     114.8     937.0      78.2     -56.3    1103.0
       6635     154.4     115.9     932.6      78.7     -55.8    1102.7
       6636     153.0     119.3     965.5      80.1     -53.9    1102.9
       6637     151.0     121.2     980.9      80.2     -52.6    1102.5
       6638     150.4     122.4     980.9      80.8     -51.9    1102.9
       6639     148.7     123.7     998.2      81.0     -51.0    1102.3
       6640     149.0     122.5    1002.0      81.6     -50.1    1102.6
       6641     147.2     122.7     960.9      81.9     -50.6    1102.4
       6642     147.9     126.0     943.7      82.3     -49.5    1102.8
       6643     145.7     126.9     955.0      82.1     -49.0    1102.5
       6644     145.5     127.1    1000.7      82.3     -49.0    1103.0
       6645     150.0     127.1     991.1      82.2     -49.8    1102.8
       6646     146.6     125.3     955.9      82.1     -49.3    1102.6
       6647     147.4     126.6     973.3      82.3     -49.9    1102.5
       6648     145.1     126.6    1002.6      82.4     -49.1    1102.3
       6649     146.8     127.1     953.0      83.4     -48.9    1102.2
       6650     146.4     127.5     964.3      82.7     -48.5    1102.2
       6651     145.4     128.5    1039.0      83.1     -47.9    1102.3
       6652     144.9     129.6     945.3      83.2     -47.3    1101.8
       6653     144.5     129.2     973.6      83.0     -48.1    1102.7
       6654     143.2     129.6     978.8      83.2     -47.4    1100.5
       6655     141.2     131.6    1001.5      84.1     -46.0    1102.7
       6656     140.0     133.1     981.3      83.6     -45.8    1102.0
       6657     136.9     133.2    1016.1      84.2     -45.6    1102.0
       6658     141.4     135.8     943.9      84.0     -45.7    1103.4
       6659     139.9     127.2     921.4      83.6     -46.4    1103.1
       6660     140.4     133.3     969.0      83.5     -45.4    1103.5
       6661     138.9     132.8     981.2      83.5     -45.0    1103.7
       6662     140.0     133.6    1018.3      83.9     -44.9    1103.0
       6663     137.9     135.7    1000.1      85.1     -44.3    1103.0
       6664     135.1     135.5    1004.8      85.3     -42.7    1103.0
       6665     136.3     135.1    1004.1      85.0     -43.3    1102.4
       6666     134.5     138.5     994.9      84.6     -43.9    1102.5
       6667     138.0     135.5     973.3      83.9     -44.3    1102.4
       6668     138.2     134.0     933.3      84.4     -44.5    1103.0
       6669     140.6     132.4     936.3      83.5     -45.5    1103.0
       6670     140.2     133.0     949.0      83.0     -45.6    1103.6
       6671     140.5     132.3     935.8      82.7     -44.9    1103.3
       6672     140.7     130.8     949.4      81.9     -46.6    1103.3
       6673     139.2     132.9     977.2      82.5     -45.5    1103.2
       6674     139.8     132.0     982.0      82.1     -46.4    1103.6
       6675     142.3     129.3     981.0      81.7     -47.3    1103.3
       6676     142.4     128.8    1010.6      81.6     -48.0    1102.8
       6677     149.2     120.3    1000.2      81.0     -47.5    1103.0
       6678     143.5     129.5     963.9      81.3     -48.3    1103.0
       6679     142.9     129.3     988.3      81.4     -48.0    1103.2
       6680     144.7     126.7    1012.5      79.9     -49.4    1103.5
       6681     145.4     126.4     981.1      79.9     -49.3    1103.5
       6682     145.7     126.7     981.8      80.0     -49.6    1103.2
       6683     145.3     126.4     981.8      80.0     -49.8    1103.3
       6684     145.1     126.2     981.4      79.8     -49.5    1103.0
       6685     144.7     126.4     981.7      79.9     -49.3    1103.4
       6686     145.2     125.9     981.1      80.0     -49.7    1103.1
       6687     145.0     125.7     980.8      79.8     -49.7    1103.0
       6688     144.6     125.9     981.1      79.8     -49.7    1102.9
       6689     145.1     126.0     981.2      80.2     -49.7    1102.6
       6690     145.1     125.8     981.2      79.7     -49.8    1103.1
