~Version Information
        VERS.      2.0                            : CWLS log ASCII Standard -VERSION 2.0
        WRAP.      NO                             : One line per depth step
~Well Information Block
#MNEM.UNIT                DATA                         DESCRIPTION
#----- -----           ----------           -----------------------
        STRT.M     6579                           : Глубина первой строки данных
        STOP.M     9298                           : Глубина последней строки данных
        STEP.M     1                              : Шаг глубины
        NULL.      -999.25                        : NULL VALUE
        COMP.                                     : Имя компании
        WELL.                                     : Название скважины
         FLD.                                     : Месторождение
         LOC.                                     : LOCATION
        PROV.                                     : PROVINCE
        SRVC.      АМК "Горизонт"                 : SERVICE COMPANY
         LIC.                                     : ERCB LICENCE NUMBER
        DATE.                                     : LOG DATE
         UWI.                                     : UNIQUE WELL ID
~Curve Information Block
#MNEM.UNIT                                    Curve Description
#---------                               ----------------------------
        DEPT.M                                    : 1   DEPTH
          GX.G                                    : Incl2_Inclin_accel_X_CLC
          GY.G                                    : Incl2_Inclin_accel_Y_CLC
          GZ.G                                    : Incl2_Inclin_accel_Z_CLC
          HX.mT                                   : Incl2_Inclin_magnit_X_CLC
          HY.mT                                   : Incl2_Inclin_magnit_Y_CLC
          HZ.mT                                   : Incl2_Inclin_magnit_Z_CLC
~Parameter Information Section
#MNEM.UNIT              Value                              Description
#---------  ----------------------------------------   -----------------------------------
~O Прочие данные
#----------------------------
~A   DEPT         AX         AY         AZ         HX         HY         HZ
# ...
       9155     209.5     195.5     954.4     240.3      21.9    1080.4
       9156     208.7     194.2     950.4     240.6      20.8    1080.5
       9157     208.4     193.1     960.1     240.8      20.3    1081.1
       9158     209.3     193.2     952.2     241.3      20.0    1080.9
       9159     209.6     192.5     961.0     241.2      18.4    1081.6
       9160     208.6     191.3     967.8     241.3      18.8    1082.1
       9161     209.4     190.6     955.6     241.1      17.6    1082.6
       9162     210.3     188.1     956.7     240.9      15.8    1083.0
       9163     208.5     189.0     967.3     241.0      15.8    1083.4
       9164     208.5     190.9     968.8     241.3      17.3    1084.2
       9165     208.0     190.1     960.8     241.1      16.6    1084.3
       9166     209.2     190.1     950.2     241.3      16.0    1085.0
       9167     208.4     189.7     958.8     241.6      16.0    1085.3
       9168     209.1     189.3     959.3     241.4      16.0    1085.3
       9169     209.5     191.3     987.5     241.6      16.1    1085.5
       9170     207.8     188.8     959.1     241.2      16.3    1085.1
       9171     208.9     189.3     959.4     241.5      15.7    1084.6
       9172     208.0     189.1     959.2     241.1      16.3    1085.1
       9173     207.7     189.4     959.0     241.5      16.0    1084.9
       9174     208.1     189.0     958.8     241.3      16.2    1084.9
       9175     208.5     189.7     958.9     241.3      16.0    1085.0
       9176     208.3     189.6     959.3     241.0      16.3    1085.5
       9177     207.8     189.6     959.7     241.7      16.2    1085.3
       9178     208.7     189.8     959.1     241.4      16.3    1085.1
       9179     207.8     189.6     958.7     241.4      16.4    1085.4
       9180     208.1     189.5     959.2     241.2      16.2    1085.3
       9181     209.0     189.2     959.1     240.9      16.1    1085.2
       9182     207.8     189.4     959.3     241.1      16.0    1085.4
       9183     208.4     189.4     959.2     241.1      16.3    1084.9
       9184     208.8     190.1     959.4     241.3      15.8    1085.3
       9185     208.7     190.0     958.8     241.1      16.4    1085.2
       9186     208.1     189.2     959.1     241.2      15.7    1084.1
       9187     208.0     189.1     958.8     241.4      16.1    1084.5
       9188     208.5     189.4     958.8     241.2      15.8    1084.3
       9189     208.4     189.8     959.2     241.4      15.8    1085.4
       9190     208.6     189.9     959.1     240.7      16.1    1084.9
       9191     208.0     189.2     959.1     241.3      16.1    1084.4
       9192     208.3     189.4     958.6     241.1      16.2    1085.0
       9193     208.6     189.9     959.0     241.3      16.0    1085.3
       9194     208.5     190.3     959.3     241.1      16.0    1084.4
       9195     208.0     189.5     958.6     241.1      15.8    1084.4
       9196     208.7     189.4     959.1     241.0      16.2    1084.5
       9197     208.3     189.5     958.8     241.1      16.3    1083.7
       9198     208.4     190.1     959.3     240.9      16.3    1084.7
       9199     209.0     189.7     959.4     241.1      16.4    1084.5
       9200     208.2     189.7     959.4     241.4      16.4    1084.6
       9201     208.3     189.6     958.8     241.0      16.3    1084.6
       9202     208.5     189.6     959.1     240.9      15.9    1084.6
       9203     208.2     189.1     959.4     241.3      16.1    1084.4
       9204     207.9     189.1     959.6     240.9      16.2    1084.5
       9205     208.2     190.0     959.6     241.3      16.1    1084.9
       9206     208.6     189.6     958.9     241.1      16.2    1085.0
       9207     208.7     189.9     959.1     240.9      16.3    1084.5
       9208     208.2     189.3     958.9     241.2      15.7    1084.7
       9209     208.9     189.6     958.8     241.3      16.0    1084.0
       9210     208.8     190.0     959.0     241.0      16.3    1084.4
       9211     208.1     189.6     959.0     241.2      16.5    1084.9
       9212     208.2     189.6     959.0     241.3      16.3    1084.9
       9213     208.0     189.4     959.1     241.1      16.4    1085.0
       9214     208.4     189.2     958.8     241.2      16.1    1084.5
       9215     208.4     190.0     958.8     241.3      16.1    1084.7
       9216     208.2     189.1     958.8     241.3      15.9    1084.6
       9217     208.8     189.9     959.2     241.4      16.2    1084.9
       9218     208.8     189.6     958.7     241.3      16.3    1084.9
       9219     208.1     189.6     958.5     241.1      16.2    1085.0
       9220     208.7     190.1     958.8     241.0      15.8    1084.8
       9221     208.4     189.4     959.2     241.3      16.0    1084.9
       9222     208.4     189.6     959.1     241.1      16.4    1084.8
       9223     208.8     189.1     961.2     241.1      16.4    1084.7
       9224     208.3     190.2     975.2     240.9      16.2    1085.3
       9225     207.8     190.2     975.5     241.1      16.3    1085.4
       9226     204.5     191.0     963.8     241.3      16.9    1086.3
       9227     206.0     190.1     957.4     240.9      16.4    1086.1
       9228     205.9     191.2     962.2     241.0      17.0    1087.3
       9229     204.4     191.5     948.8     240.1      18.7    1087.3
       9230     204.8     191.2     954.5     239.5      18.5    1087.4
       9231     204.4     192.4     964.3     239.9      18.4    1087.6
       9232     203.2     192.8     962.3     240.1      19.3    1087.7
       9233     203.0     193.5     962.9     239.1      20.2    1087.9
       9234     202.7     193.5     962.3     239.3      20.0    1087.7
       9235     201.8     194.4     959.1     239.0      20.2    1088.4
       9236     201.6     193.6     965.0     238.6      19.8    1088.5
       9237     201.1     193.2     964.3     238.2      18.9    1088.6
       9238     201.3     192.9     967.1     237.8      18.7    1089.2
       9239     201.9     191.2     959.4     237.4      16.7    1088.8
       9240     202.1     190.2     958.2     237.6      15.3    1088.0
       9241     203.2     189.3     958.4     237.2      14.1    1089.8
       9242     204.0     188.2     956.6     237.1      12.8    1089.8
       9243     203.4     188.7     964.6     236.4      12.3    1089.9
       9244     203.2     187.1     959.0     234.8      12.5    1089.3
       9245     203.0     185.9     962.1     236.5       9.5    1089.8
       9246     203.8     186.9     956.0     235.1       9.6    1089.0
       9247     203.0     185.4     970.0     235.6       8.6    1088.7
       9248     203.1     185.2     959.5     234.2       8.4    1089.2
       9249     201.2     185.2     967.1     234.7       7.9    1088.9
       9250     204.8     184.7     967.7     234.2       6.7    1089.2
       9251     202.9     184.0     965.1     233.7       6.0    1089.2
       9252     202.8     182.7     965.1     234.1       4.1    1088.8
       9253     202.6     181.9     955.0     233.8       3.6    1087.9
       9254     203.1     181.4     964.6     233.4       2.6    1088.6
       9255     202.2     180.6     956.7     233.1       1.9    1088.2
       9256     202.5     180.0     954.8     233.4       1.0    1087.9
       9257     203.8     179.1     974.4     233.0      -0.6    1088.0
       9258     203.5     177.8     964.0     232.6      -2.1    1088.0
       9259     203.7     176.0     956.8     232.1      -3.5    1087.3
       9260     203.4     175.4     968.3     231.8      -5.0    1087.3
       9261     203.8     174.6     964.3     230.9      -5.6    1087.1
       9262     203.3     173.4     958.6     230.7      -7.0    1087.1
       9263     203.0     172.8     955.7     230.7      -7.9    1087.2
       9264     201.9     172.4     959.7     230.6      -7.8    1087.0
       9265     201.8     171.3     974.9     230.4     -10.0    1086.5
       9266     202.0     170.1     963.9     230.1     -10.5    1087.0
