~Version Information
        VERS.      2.0                            : CWLS log ASCII Standard -VERSION 2.0
        WRAP.      NO                             : One line per depth step
~Well Information Block
#MNEM.UNIT                DATA                         DESCRIPTION
#----- -----           ----------           -----------------------
        STRT.M     6579                           : Глубина первой строки данных
        STOP.M     9298                           : Глубина последней строки данных
        STEP.M     1                              : Шаг глубины
        NULL.      -999.25                        : NULL VALUE
        COMP.                                     : Имя компании
        WELL.                                     : Название скважины
         FLD.                                     : Месторождение
         LOC.                                     : LOCATION
        PROV.                                     : PROVINCE
        SRVC.      АМК "Горизонт"                 : SERVICE COMPANY
         LIC.                                     : ERCB LICENCE NUMBER
        DATE.                                     : LOG DATE
         UWI.                                     : UNIQUE WELL ID
~Curve Information Block
#MNEM.UNIT                                    Curve Description
#---------                               ----------------------------
        DEPT.M                                    : 1   DEPTH
          GX.G                                    : Incl2_Inclin_accel_X_CLC
          GY.G                                    : Incl2_Inclin_accel_Y_CLC
          GZ.G                                    : Incl2_Inclin_accel_Z_CLC
          HX.mT                                   : Incl2_Inclin_magnit_X_CLC
          HY.mT                                   : Incl2_Inclin_magnit_Y_CLC
          HZ.mT                                   : Incl2_Inclin_magnit_Z_CLC
~Parameter Information Section
#MNEM.UNIT              Value                              Description
#---------  ----------------------------------------   -----------------------------------
~O Прочие данные
#----------------------------
~A   DEPT         AX         AY         AZ         HX         HY         HZ
# ...
       7811     204.8     150.8     967.7     132.9     -15.6    1098.3
       7812     204.7     151.1     960.3     134.0     -16.1    1098.3
       7813     205.4     151.3     960.4     134.5     -15.4    1098.5
       7814     206.6     151.4     969.9     135.5     -15.2    1098.5
       7815     206.8     152.7     952.5     136.4     -15.0    1098.4
       7816     207.7     152.5     965.9     137.0     -15.2    1098.6
       7817     207.1     152.1     965.3     136.9     -14.5    1098.1
       7818     207.5     151.7     965.7     136.7     -14.4    1097.9
       7819     207.4     152.1     966.0     137.3     -14.8    1098.4
       7820     207.2     151.7     965.4     136.8     -14.9    1098.2
       7821     207.7     151.9     965.8     136.8     -14.9    1098.0
       7822     208.3     152.8     966.1     136.5     -14.6    1097.9
       7823     207.6     152.1     965.6     137.2     -15.3    1098.3
       7824     207.2     152.0     965.5     136.7     -14.8    1098.5
       7825     207.6     151.8     965.7     136.5     -14.6    1098.2
       7826     207.6     151.8     966.2     136.8     -14.7    1098.2
       7827     207.6     151.9     966.3     136.8     -14.4    1098.9
       7828     207.3     151.9     966.0     137.0     -15.0    1098.4
       7829     207.6     152.2     965.4     136.9     -14.9    1098.3
       7830     207.8     152.6     965.8     137.0     -14.5    1098.2
       7831     207.4     151.8     965.9     136.4     -14.3    1098.6
       7832     207.6     151.8     965.9     137.0     -14.6    1098.2
       7833     207.5     152.4     966.1     136.6     -14.8    1098.9
       7834     207.1     152.5     965.9     136.8     -15.0    1098.3
       7835     207.7     151.6     965.4     136.9     -14.9    1098.2
       7836     208.0     152.2     965.7     136.6     -14.5    1098.7
       7837     208.3     152.2     965.8     136.9     -14.7    1097.8
       7838     208.1     152.6     966.0     136.8     -14.6    1098.4
       7839     208.0     152.7     966.0     136.6     -14.6    1098.6
       7840     207.3     152.4     965.8     136.3     -14.7    1097.5
       7841     207.4     152.4     965.9     136.8     -14.9    1098.5
       7842     207.1     151.5     965.8     137.1     -15.0    1097.4
       7843     207.6     152.5     965.6     136.2     -14.6    1097.5
       7844     208.0     152.1     966.1     136.9     -14.8    1097.9
       7845     207.6     152.4     965.2     136.6     -14.7    1097.7
       7846     208.0     152.5     966.0     136.8     -15.2    1098.8
       7847     207.8     152.3     966.0     137.2     -14.6    1097.8
       7848     207.3     151.7     965.5     137.0     -14.8    1097.7
       7849     207.6     152.2     966.3     136.7     -14.6    1097.9
       7850     207.5     151.9     965.7     136.9     -14.9    1097.8
       7851     207.6     152.1     965.7     136.7     -15.1    1097.9
       7852     206.9     151.9     965.7     136.2     -14.4    1097.8
       7853     207.8     152.2     965.9     136.9     -15.0    1097.8
       7854     207.3     151.8     965.4     136.3     -14.9    1097.6
       7855     207.6     152.2     966.4     136.1     -14.8    1097.9
       7856     208.0     152.6     966.5     136.8     -14.5    1097.6
       7857     208.1     152.9     966.0     136.7     -14.6    1098.0
       7858     207.9     152.4     966.2     136.8     -14.4    1097.2
       7859     208.2     152.1     965.4     137.1     -14.8    1097.6
       7860     207.9     151.9     965.8     136.8     -14.8    1097.8
       7861     207.4     152.2     965.3     136.8     -14.3    1097.9
       7862     207.5     152.1     965.2     136.8     -14.9    1098.3
       7863     207.6     151.4     965.9     136.8     -14.3    1098.0
       7864     208.0     152.5     965.3     136.6     -14.6    1098.1
       7865     207.3     151.7     965.7     137.0     -14.6    1098.0
       7866     208.0     152.5     965.9     136.7     -14.7    1098.1
       7867     207.3     151.8     965.9     136.9     -14.9    1098.4
       7868     207.2     151.8     966.0     137.0     -14.9    1098.4
       7869     207.4     152.2     965.9     136.9     -15.0    1098.0
       7870     208.0     152.7     965.7     136.9     -14.7    1098.0
       7871     206.7     151.7     966.0     136.8     -14.7    1098.3
       7872     207.6     152.0     982.8     137.0     -15.1    1098.3
       7873     208.8     150.9     965.6     137.8     -15.1    1097.6
       7874     208.3     152.7     958.1     138.4     -14.6    1098.2
       7875     209.0     152.3     958.9     138.6     -14.4    1098.2
       7876     209.2     152.3     967.7     139.5     -14.3    1098.0
       7877     209.6     152.2     950.8     139.9     -14.2    1098.0
       7878     209.8     153.7     971.5     140.2     -13.0    1097.8
       7879     210.4     154.0     964.0     141.3     -13.1    1097.8
       7880     209.6     155.0     970.7     141.7     -12.5    1097.4
       7881     209.5     155.2     969.9     141.7     -12.3    1098.1
       7882     210.2     155.0     964.8     142.4     -11.6    1097.6
       7883     209.7     157.4     972.8     142.8     -11.6    1098.4
       7884     209.9     156.2     962.4     143.5     -11.2    1097.6
       7885     210.2     159.1     956.4     144.0     -10.6    1098.0
       7886     211.8     156.1     972.8     144.0     -10.8    1097.4
       7887     209.6     159.9     974.0     144.2      -8.7    1096.9
       7888     208.2     159.8     964.4     144.8      -9.2    1097.9
       7889     206.1     160.9     974.9     144.6      -7.0    1097.7
       7890     204.0     164.1     968.1     145.2      -5.3    1096.6
       7891     206.5     165.2     970.0     144.5      -5.3    1097.4
       7892     205.1     164.8     964.4     144.7      -4.6    1097.3
       7893     204.6     166.5     959.4     144.6      -3.4    1097.4
       7894     205.1     167.2     960.4     145.3      -3.1    1097.9
       7895     202.7     168.6     971.3     145.5      -1.7    1097.3
       7896     202.2     171.5     960.8     145.8      -0.6    1097.6
       7897     200.6     172.0     962.1     146.3       0.6    1096.4
       7898     200.0     173.2     975.9     146.6       1.7    1097.2
       7899     199.5     174.6     953.1     146.3       2.8    1097.4
       7900     199.1     174.2     976.1     146.7       3.1    1096.3
       7901     196.8     177.6     966.0     146.6       5.2    1096.4
       7902     194.8     180.8     968.3     147.2       7.8    1097.0
       7903     192.9     183.7     961.2     147.5       8.8    1097.4
       7904     190.8     184.0     963.7     147.0      10.6    1096.5
       7905     190.8     184.3     963.2     147.2      11.2    1096.8
       7906     189.4     186.5     969.8     147.8      12.8    1096.7
       7907     189.1     186.8     967.3     148.0      13.4    1097.4
       7908     191.6     189.6     963.0     147.8      13.9    1096.6
       7909     188.7     190.6     960.9     148.2      14.4    1096.7
       7910     188.4     190.7     951.8     148.8      15.7    1096.5
       7911     186.0     190.5     964.4     149.4      16.4    1097.3
       7912     185.6     192.4     959.7     148.7      17.3    1096.1
       7913     183.7     195.0     966.0     149.1      20.4    1096.5
       7914     182.5     196.5     970.4     149.1      21.3    1096.2
       7915     182.1     196.6     967.9     149.7      20.7    1096.1
       7916     183.0     197.5     971.5     149.9      22.3    1096.1
       7917     179.5     197.6     969.9     150.2      23.6    1096.0
       7918     182.2     197.8     959.3     150.2      24.1    1095.6
       7919     174.6     208.0     962.1     150.3      25.8    1096.0
       7920     176.5     203.9     956.7     151.0      27.9    1095.9
       7921     175.1     205.3     961.0     150.7      28.7    1095.4
       7922     173.5     207.0     964.6     150.2      30.4    1095.9
