~Version Information
        VERS.      2.0                            : CWLS log ASCII Standard -VERSION 2.0
        WRAP.      NO                             : One line per depth step
~Well Information Block
#MNEM.UNIT                DATA                         DESCRIPTION
#----- -----           ----------           -----------------------
        STRT.M     6579                           : Глубина первой строки данных
        STOP.M     9298                           : Глубина последней строки данных
        STEP.M     1                              : Шаг глубины
        NULL.      -999.25                        : NULL VALUE
        COMP.                                     : Имя компании
        WELL.                                     : Название скважины
         FLD.                                     : Месторождение
         LOC.                                     : LOCATION
        PROV.                                     : PROVINCE
        SRVC.      АМК "Горизонт"                 : SERVICE COMPANY
         LIC.                                     : ERCB LICENCE NUMBER
        DATE.                                     : LOG DATE
         UWI.                                     : UNIQUE WELL ID
~Curve Information Block
#MNEM.UNIT                                    Curve Description
#---------                               ----------------------------
        DEPT.M                                    : 1   DEPTH
          GX.G                                    : Incl2_Inclin_accel_X_CLC
          GY.G                                    : Incl2_Inclin_accel_Y_CLC
          GZ.G                                    : Incl2_Inclin_accel_Z_CLC
          HX.mT                                   : Incl2_Inclin_magnit_X_CLC
          HY.mT                                   : Incl2_Inclin_magnit_Y_CLC
          HZ.mT                                   : Incl2_Inclin_magnit_Z_CLC
~Parameter Information Section
#MNEM.UNIT              Value                              Description
#---------  ----------------------------------------   -----------------------------------
~O Прочие данные
#----------------------------
~A   DEPT         AX         AY         AZ         HX         HY         HZ
# ...
       8595     258.9     223.3     944.9     237.9      50.8    1078.5
       8596     261.9     219.5     940.4     238.4      47.7    1078.2
       8597     264.0     216.4     930.2     239.2      45.0    1078.3
       8598     266.4     215.4     938.1     239.8      43.3    1078.5
       8599     268.0     213.6     935.5     240.0      40.8    1078.7
       8600     270.7     210.2     938.3     240.4      39.0    1078.3
       8601     272.6     208.2     941.3     240.9      37.0    1078.5
       8602     274.0     205.7     946.8     241.0      34.9    1078.5
       8603     275.0     205.1     938.2     241.4      33.7    1078.3
       8604     276.1     203.1     941.6     241.8      32.0    1078.5
       8605     277.3     201.2     936.2     242.2      30.9    1078.3
       8606     277.5     202.3     927.0     241.7      31.4    1078.1
       8607     277.7     202.2     932.6     242.3      31.4    1078.2
       8608     279.0     201.2     927.9     242.6      30.6    1078.5
       8609     280.0     199.5     935.5     243.1      29.2    1078.7
       8610     281.1     198.4     933.7     243.3      28.2    1078.3
       8611     281.5     197.6     933.8     243.3      27.8    1078.5
       8612     281.8     197.4     947.5     243.3      27.5    1078.4
       8613     282.4     197.1     937.7     243.4      26.2    1078.3
       8614     286.3     190.5     943.4     244.1      21.6    1077.6
       8615     284.4     194.4     946.3     244.0      24.2    1078.3
       8616     283.9     193.9     946.9     243.9      24.3    1077.1
       8617     284.1     194.5     937.3     243.7      24.6    1078.2
       8618     284.8     193.8     931.3     244.0      24.2    1077.6
       8619     285.1     194.0     939.0     244.2      24.2    1078.4
       8620     284.4     195.3     942.0     243.7      24.4    1077.8
       8621     283.3     195.2     929.6     243.9      26.0    1077.4
       8622     283.6     196.6     934.9     243.9      26.3    1077.3
       8623     283.1     197.2     947.8     243.3      26.9    1077.3
       8624     282.6     197.8     946.0     243.6      27.9    1077.7
       8625     281.7     197.7     923.6     243.8      28.2    1077.6
       8626     281.2     200.4     938.7     243.6      30.0    1077.5
       8627     278.9     202.1     927.8     243.5      31.7    1077.3
       8628     278.8     202.8     930.5     243.1      31.8    1077.8
       8629     278.9     203.3     943.9     243.6      32.5    1077.4
       8630     277.6     203.8     937.7     242.7      33.3    1077.4
       8631     276.5     205.8     942.2     242.6      34.8    1077.8
       8632     276.1     206.5     918.1     242.6      35.0    1077.4
       8633     274.8     207.6     934.1     242.0      36.8    1077.7
       8634     274.1     208.5     943.1     241.7      38.4    1077.6
       8635     272.7     210.7     940.3     241.7      39.6    1078.2
       8636     271.2     210.9     949.6     241.8      40.4    1077.5
       8637     272.0     211.8     942.6     241.8      40.9    1077.8
       8638     271.0     213.5     940.5     241.3      42.4    1078.2
       8639     268.9     214.5     931.3     241.2      44.1    1077.6
       8640     268.9     214.5     940.6     241.0      43.8    1078.1
       8641     270.0     213.7     940.0     241.6      42.6    1077.8
       8642     269.6     213.8     942.5     241.1      42.7    1078.3
       8643     268.7     215.9     932.7     240.7      44.2    1077.7
       8644     268.5     215.6     943.4     240.6      44.4    1077.6
       8645     269.5     215.3     932.8     240.8      44.2    1077.8
       8646     268.4     216.1     939.9     240.3      44.6    1078.0
       8647     268.1     216.8     931.2     240.3      45.6    1078.1
       8648     266.7     218.2     934.3     239.8      46.4    1078.0
       8649     266.9     217.2     941.0     240.6      46.5    1078.1
       8650     266.1     218.8     942.7     240.2      47.0    1077.8
       8651     265.4     219.5     937.5     240.2      48.1    1078.0
       8652     264.7     220.0     945.3     240.0      48.8    1078.2
       8653     265.3     219.6     939.0     240.3      47.8    1078.0
       8654     264.2     220.0     940.5     240.4      49.1    1078.0
       8655     265.1     220.3     938.0     240.5      48.6    1077.9
       8656     263.4     222.6     949.8     239.8      51.2    1077.7
       8657     262.9     222.8     944.0     239.7      51.8    1077.8
       8658     263.5     223.3     937.4     240.0      51.3    1078.2
       8659     262.8     222.4     945.4     240.0      50.9    1077.9
       8660     262.2     222.4     938.7     240.0      50.9    1078.0
       8661     262.8     223.3     942.6     239.2      52.0    1077.9
       8662     263.0     222.8     932.3     240.2      51.4    1077.9
       8663     263.7     221.7     932.4     240.5      50.3    1077.9
       8664     265.2     222.1     937.2     239.9      50.2    1078.1
       8665     264.4     221.2     933.5     240.3      49.1    1077.9
       8666     265.5     221.2     938.2     240.6      49.0    1078.1
       8667     265.4     220.6     938.5     240.7      48.6    1078.2
       8668     265.1     220.9     938.8     240.4      49.3    1077.9
       8669     265.0     220.6     937.9     240.4      49.1    1077.8
       8670     265.0     220.6     938.1     240.3      48.9    1078.1
       8671     265.4     221.2     938.1     240.6      48.9    1077.9
       8672     265.9     220.7     938.5     240.5      49.1    1077.9
       8673     265.3     220.4     938.0     241.1      49.1    1078.5
       8674     265.1     220.7     938.2     240.4      49.1    1078.0
       8675     265.1     221.4     938.0     239.9      49.0    1077.0
       8676     264.7     220.6     938.3     240.0      49.0    1076.7
       8677     265.1     220.5     938.2     240.0      49.2    1077.9
       8678     265.3     220.9     937.8     240.4      49.7    1078.1
       8679     265.1     220.7     938.0     240.1      49.7    1077.3
       8680     264.6     220.7     938.4     240.1      48.9    1077.3
       8681     265.1     220.5     938.0     240.0      49.0    1077.1
       8682     265.0     220.8     937.8     240.7      49.2    1077.7
       8683     264.5     220.5     938.7     240.4      48.8    1077.5
       8684     265.4     220.6     938.3     240.0      49.1    1077.3
       8685     265.7     220.7     937.9     240.0      49.3    1078.2
       8686     264.2     219.9     938.5     240.0      48.7    1077.3
       8687     265.6     220.4     938.5     240.3      49.0    1077.7
       8688     265.4     220.3     938.2     240.5      48.9    1077.8
       8689     265.6     220.8     937.9     240.8      49.1    1077.0
       8690     265.2     220.6     938.6     240.1      48.8    1077.5
       8691     265.2     220.4     937.8     240.2      48.9    1077.3
       8692     265.8     220.5     937.9     240.2      49.2    1077.5
       8693     265.4     220.3     938.4     240.2      48.9    1077.7
       8694     265.6     220.6     937.5     240.1      49.4    1077.4
       8695     265.4     220.1     938.4     240.0      49.2    1078.0
       8696     265.5     220.1     938.4     240.0      49.3    1077.6
       8697     265.7     220.1     938.5     240.2      49.0    1077.6
       8698     264.7     220.2     938.0     240.5      49.0    1077.6
       8699     264.5     220.2     938.5     240.0      48.8    1078.0
       8700     265.4     220.4     938.7     240.0      49.5    1077.3
       8701     265.3     220.7     938.0     240.5      49.2    1077.4
       8702     265.0     220.4     938.3     240.2      48.8    1077.8
       8703     264.9     220.0     938.1     240.1      48.7    1077.9
       8704     265.1     220.7     938.2     240.3      49.0    1077.7
       8705     264.8     220.5     938.7     240.3      49.2    1077.7
       8706     264.3     219.6     938.0     240.6      49.3    1077.4
